{
"type": "FeatureCollection",
"name": "resource_list",
"crs": { "type": "name", "properties": { "name": "urn:ogc:def:crs:OGC:1.3:CRS84" } },
"features": [
{ "type": "Feature", "properties": { "name": "1001 SAN MIGUEL FD CNTR", "category": "Store" }, "geometry": { "type": "Point", "coordinates": [ -73.919613, 40.829061 ] } },
{ "type": "Feature", "properties": { "name": "1029 FOOD PLAZA", "category": "Store" }, "geometry": { "type": "Point", "coordinates": [ -73.902853, 40.854755 ] } },
{ "type": "Feature", "properties": { "name": "1078 DELI GROCERY", "category": "Store" }, "geometry": { "type": "Point", "coordinates": [ -73.890589, 40.825105 ] } },
{ "type": "Feature", "properties": { "name": "1086 LUNA DELI GROCERY", "category": "Store" }, "geometry": { "type": "Point", "coordinates": [ -73.905123, 40.827096 ] } },
{ "type": "Feature", "properties": { "name": "109 AJ DELI GROCERY", "category": "Store" }, "geometry": { "type": "Point", "coordinates": [ -73.907137, 40.850537 ] } },
{ "type": "Feature", "properties": { "name": "1105 TINTON DELI GRCY", "category": "Store" }, "geometry": { "type": "Point", "coordinates": [ -73.901498, 40.826607 ] } },
{ "type": "Feature", "properties": { "name": "1150 WEBSTER PHARMACY I", "category": "Store" }, "geometry": { "type": "Point", "coordinates": [ -73.91063, 40.830425 ] } },
{ "type": "Feature", "properties": { "name": "1208 STRATFORD AVE", "category": "Store" }, "geometry": { "type": "Point", "coordinates": [ -73.875621, 40.829671 ] } },
{ "type": "Feature", "properties": { "name": "123 MEAT FRUIT & VEGETA", "category": "Store" }, "geometry": { "type": "Point", "coordinates": [ -73.902627, 40.86883 ] } },
{ "type": "Feature", "properties": { "name": "125 W 165 ST GROCERY", "category": "Store" }, "geometry": { "type": "Point", "coordinates": [ -73.92806, 40.834279 ] } },
{ "type": "Feature", "properties": { "name": "1296 SHERIDAN DELI GRCR", "category": "Store" }, "geometry": { "type": "Point", "coordinates": [ -73.914557, 40.836242 ] } },
{ "type": "Feature", "properties": { "name": "129 CARIBE", "category": "Store" }, "geometry": { "type": "Point", "coordinates": [ -73.913639, 40.849999 ] } },
{ "type": "Feature", "properties": { "name": "12E 196TH STREET FOOD", "category": "Store" }, "geometry": { "type": "Point", "coordinates": [ -73.89547, 40.868979 ] } },
{ "type": "Feature", "properties": { "name": "134TH MEAT MARKET INC T", "category": "Store" }, "geometry": { "type": "Point", "coordinates": [ -73.920809, 40.804903 ] } },
{ "type": "Feature", "properties": { "name": "1359 OGDEN GROCERY", "category": "Store" }, "geometry": { "type": "Point", "coordinates": [ -73.924951, 40.841357 ] } },
{ "type": "Feature", "properties": { "name": "1370 JEROME 99 STORE", "category": "Store" }, "geometry": { "type": "Point", "coordinates": [ -73.917933, 40.839886 ] } },
{ "type": "Feature", "properties": { "name": "1460 GOURMET DELI", "category": "Store" }, "geometry": { "type": "Point", "coordinates": [ -73.89079, 40.832447 ] } },
{ "type": "Feature", "properties": { "name": "150 AURORA GROCERY STR", "category": "Store" }, "geometry": { "type": "Point", "coordinates": [ -73.909289, 40.844843 ] } },
{ "type": "Feature", "properties": { "name": "1517 DELI & DISCOUNT", "category": "Store" }, "geometry": { "type": "Point", "coordinates": [ -73.879276, 40.828569 ] } },
{ "type": "Feature", "properties": { "name": "152ND STREET FOOD", "category": "Store" }, "geometry": { "type": "Point", "coordinates": [ -73.904145, 40.815213 ] } },
{ "type": "Feature", "properties": { "name": "152 VM GROCERY", "category": "Store" }, "geometry": { "type": "Point", "coordinates": [ -73.914034, 40.84016 ] } },
{ "type": "Feature", "properties": { "name": "1530 FOOD MARKET & 99 C", "category": "Store" }, "geometry": { "type": "Point", "coordinates": [ -73.921711, 40.845954 ] } },
{ "type": "Feature", "properties": { "name": "1530 MACOMBS GROCERY DE", "category": "Store" }, "geometry": { "type": "Point", "coordinates": [ -73.917631, 40.843507 ] } },
{ "type": "Feature", "properties": { "name": "157 GERARD", "category": "Store" }, "geometry": { "type": "Point", "coordinates": [ -73.926523, 40.825489 ] } },
{ "type": "Feature", "properties": { "name": "161 SHADDAD", "category": "Store" }, "geometry": { "type": "Point", "coordinates": [ -73.909207, 40.822353 ] } },
{ "type": "Feature", "properties": { "name": "163 ASHLEY DELI GROCERY", "category": "Store" }, "geometry": { "type": "Point", "coordinates": [ -73.908802, 40.823896 ] } },
{ "type": "Feature", "properties": { "name": "165 STREET MARKET", "category": "Store" }, "geometry": { "type": "Point", "coordinates": [ -73.917284, 40.829654 ] } },
{ "type": "Feature", "properties": { "name": "166TH DELI AND GROCERY", "category": "Store" }, "geometry": { "type": "Point", "coordinates": [ -73.918834, 40.831594 ] } },
{ "type": "Feature", "properties": { "name": "168TH SUPERIOR MARKET", "category": "Store" }, "geometry": { "type": "Point", "coordinates": [ -73.924567, 40.838298 ] } },
{ "type": "Feature", "properties": { "name": "1701 GROCERY", "category": "Store" }, "geometry": { "type": "Point", "coordinates": [ -73.866608, 40.843551 ] } },
{ "type": "Feature", "properties": { "name": "1710 LOS SOCIO", "category": "Store" }, "geometry": { "type": "Point", "coordinates": [ -73.918032, 40.848449 ] } },
{ "type": "Feature", "properties": { "name": "171 WEST CORP", "category": "Store" }, "geometry": { "type": "Point", "coordinates": [ -73.914754, 40.853963 ] } },
{ "type": "Feature", "properties": { "name": "1772 RANDALL AVE FOOD", "category": "Store" }, "geometry": { "type": "Point", "coordinates": [ -73.864241, 40.816832 ] } },
{ "type": "Feature", "properties": { "name": "178 GOURMET DELI", "category": "Store" }, "geometry": { "type": "Point", "coordinates": [ -73.910754, 40.852254 ] } },
{ "type": "Feature", "properties": { "name": "180 LA DELI GROCERY", "category": "Store" }, "geometry": { "type": "Point", "coordinates": [ -73.918213, 40.832816 ] } },
{ "type": "Feature", "properties": { "name": "180 PENA GROCERY", "category": "Store" }, "geometry": { "type": "Point", "coordinates": [ -73.927698, 40.837853 ] } },
{ "type": "Feature", "properties": { "name": "183 GOLD FISH MARKET", "category": "Store" }, "geometry": { "type": "Point", "coordinates": [ -73.904438, 40.858549 ] } },
{ "type": "Feature", "properties": { "name": "1888 WALTON GROCERY", "category": "Store" }, "geometry": { "type": "Point", "coordinates": [ -73.909307, 40.849525 ] } },
{ "type": "Feature", "properties": { "name": "193 RENAISSANCE MARKET", "category": "Store" }, "geometry": { "type": "Point", "coordinates": [ -73.91771, 40.832642 ] } },
{ "type": "Feature", "properties": { "name": "19 W BRONX DELI GROCERY", "category": "Store" }, "geometry": { "type": "Point", "coordinates": [ -73.904645, 40.858617 ] } },
{ "type": "Feature", "properties": { "name": "2001 GOURMET DELI", "category": "Store" }, "geometry": { "type": "Point", "coordinates": [ -73.888837, 40.846387 ] } },
{ "type": "Feature", "properties": { "name": "2013 ABIGAIL DELI GROCE", "category": "Store" }, "geometry": { "type": "Point", "coordinates": [ -73.882397, 40.852304 ] } },
{ "type": "Feature", "properties": { "name": "2016 WEST FARMS CONVENI", "category": "Store" }, "geometry": { "type": "Point", "coordinates": [ -73.879824, 40.840468 ] } },
{ "type": "Feature", "properties": { "name": "20\/20 CONVENIENCE STORE", "category": "Store" }, "geometry": { "type": "Point", "coordinates": [ -73.913634, 40.824121 ] } },
{ "type": "Feature", "properties": { "name": "20\/20 DELI", "category": "Store" }, "geometry": { "type": "Point", "coordinates": [ -73.891999, 40.826794 ] } },
{ "type": "Feature", "properties": { "name": "20-20-GOURMET DELI", "category": "Store" }, "geometry": { "type": "Point", "coordinates": [ -73.916748, 40.822524 ] } },
{ "type": "Feature", "properties": { "name": "2031 WEBSTER FOOD", "category": "Store" }, "geometry": { "type": "Point", "coordinates": [ -73.899058, 40.850841 ] } },
{ "type": "Feature", "properties": { "name": "2034 APPLE GROCERY & PR", "category": "Store" }, "geometry": { "type": "Point", "coordinates": [ -73.843502, 40.854057 ] } },
{ "type": "Feature", "properties": { "name": "206 SAMY GOURMET DELI", "category": "Store" }, "geometry": { "type": "Point", "coordinates": [ -73.923757, 40.807934 ] } },
{ "type": "Feature", "properties": { "name": "210 SUPERMARKET", "category": "Store" }, "geometry": { "type": "Point", "coordinates": [ -73.855455, 40.809961 ] } },
{ "type": "Feature", "properties": { "name": "2152 RAYS CORNER DELI &", "category": "Store" }, "geometry": { "type": "Point", "coordinates": [ -73.88289, 40.847548 ] } },
{ "type": "Feature", "properties": { "name": "2220 ONE WAY DELI GROCE", "category": "Store" }, "geometry": { "type": "Point", "coordinates": [ -73.8686, 40.858357 ] } },
{ "type": "Feature", "properties": { "name": "2300 DELI", "category": "Store" }, "geometry": { "type": "Point", "coordinates": [ -73.884437, 40.852278 ] } },
{ "type": "Feature", "properties": { "name": "2304 FORDHAM HILL FOOD", "category": "Store" }, "geometry": { "type": "Point", "coordinates": [ -73.909021, 40.862536 ] } },
{ "type": "Feature", "properties": { "name": "230 JC DELI GROCERY", "category": "Store" }, "geometry": { "type": "Point", "coordinates": [ -73.907292, 40.844724 ] } },
{ "type": "Feature", "properties": { "name": "2326 DELI GROCERY", "category": "Store" }, "geometry": { "type": "Point", "coordinates": [ -73.899443, 40.857929 ] } },
{ "type": "Feature", "properties": { "name": "233 ST MINI STOP", "category": "Store" }, "geometry": { "type": "Point", "coordinates": [ -73.857437, 40.89333 ] } },
{ "type": "Feature", "properties": { "name": "2363 ROSEWOOD GROCERY", "category": "Store" }, "geometry": { "type": "Point", "coordinates": [ -73.867162, 40.872845 ] } },
{ "type": "Feature", "properties": { "name": "2374 KING DELI & GROCER", "category": "Store" }, "geometry": { "type": "Point", "coordinates": [ -73.902471, 40.860701 ] } },
{ "type": "Feature", "properties": { "name": "242 DELI FOOD", "category": "Store" }, "geometry": { "type": "Point", "coordinates": [ -73.849414, 40.90566 ] } },
{ "type": "Feature", "properties": { "name": "2430 DELI & GROCERY", "category": "Store" }, "geometry": { "type": "Point", "coordinates": [ -73.852098, 40.842612 ] } },
{ "type": "Feature", "properties": { "name": "250 JB FOOD CENTER", "category": "Store" }, "geometry": { "type": "Point", "coordinates": [ -73.875957, 40.879869 ] } },
{ "type": "Feature", "properties": { "name": "250 WILLIS AVE MT&PRDCE", "category": "Store" }, "geometry": { "type": "Point", "coordinates": [ -73.922667, 40.809423 ] } },
{ "type": "Feature", "properties": { "name": "251 GROCERY & DELI", "category": "Store" }, "geometry": { "type": "Point", "coordinates": [ -73.905009, 40.872782 ] } },
{ "type": "Feature", "properties": { "name": "251 SUNSHINE DELI GROCE", "category": "Store" }, "geometry": { "type": "Point", "coordinates": [ -73.906574, 40.879823 ] } },
{ "type": "Feature", "properties": { "name": "2 & 5 LINE DELI GROCERY", "category": "Store" }, "geometry": { "type": "Point", "coordinates": [ -73.867637, 40.857549 ] } },
{ "type": "Feature", "properties": { "name": "266 A & F DELI GROCERY", "category": "Store" }, "geometry": { "type": "Point", "coordinates": [ -73.924367, 40.815183 ] } },
{ "type": "Feature", "properties": { "name": "2690 GROCERY", "category": "Store" }, "geometry": { "type": "Point", "coordinates": [ -73.922524, 40.813513 ] } },
{ "type": "Feature", "properties": { "name": "26 KINGSBRIDGE FARM", "category": "Store" }, "geometry": { "type": "Point", "coordinates": [ -73.89882, 40.867744 ] } },
{ "type": "Feature", "properties": { "name": "283 AN GROCERY", "category": "Store" }, "geometry": { "type": "Point", "coordinates": [ -73.917932, 40.825408 ] } },
{ "type": "Feature", "properties": { "name": "2958 DAY & NIGHT DELI G", "category": "Store" }, "geometry": { "type": "Point", "coordinates": [ -73.867261, 40.869535 ] } },
{ "type": "Feature", "properties": { "name": "2 BROTHERS FAMOUS DELI", "category": "Store" }, "geometry": { "type": "Point", "coordinates": [ -73.867371, 40.866344 ] } },
{ "type": "Feature", "properties": { "name": "3161 NORWOOD DELI", "category": "Store" }, "geometry": { "type": "Point", "coordinates": [ -73.879483, 40.875136 ] } },
{ "type": "Feature", "properties": { "name": "323 GUN HILL DELI", "category": "Store" }, "geometry": { "type": "Point", "coordinates": [ -73.873845, 40.878947 ] } },
{ "type": "Feature", "properties": { "name": "332 GROCERY STORE", "category": "Store" }, "geometry": { "type": "Point", "coordinates": [ -73.916014, 40.809056 ] } },
{ "type": "Feature", "properties": { "name": "3770 FISH MARKET", "category": "Store" }, "geometry": { "type": "Point", "coordinates": [ -73.8629, 40.883455 ] } },
{ "type": "Feature", "properties": { "name": "37 DELI GROCERY 06\/01\/1", "category": "Store" }, "geometry": { "type": "Point", "coordinates": [ -73.905352, 40.858864 ] } },
{ "type": "Feature", "properties": { "name": "383 CAPELLAN GROCERY", "category": "Store" }, "geometry": { "type": "Point", "coordinates": [ -73.923331, 40.809293 ] } },
{ "type": "Feature", "properties": { "name": "3 IN ONE MARKET", "category": "Store" }, "geometry": { "type": "Point", "coordinates": [ -73.904877, 40.858692 ] } },
{ "type": "Feature", "properties": { "name": "3RD AVE FISH & DELI", "category": "Store" }, "geometry": { "type": "Point", "coordinates": [ -73.920346, 40.814636 ] } },
{ "type": "Feature", "properties": { "name": "3RD AVE STOP SHOP", "category": "Store" }, "geometry": { "type": "Point", "coordinates": [ -73.902489, 40.836493 ] } },
{ "type": "Feature", "properties": { "name": "4185 ENTERPRISE", "category": "Store" }, "geometry": { "type": "Point", "coordinates": [ -73.857549, 40.89312 ] } },
{ "type": "Feature", "properties": { "name": "41 FANTASY FOOD CENTER", "category": "Store" }, "geometry": { "type": "Point", "coordinates": [ -73.922248, 40.852143 ] } },
{ "type": "Feature", "properties": { "name": "422 WCHESTER FRT VEG&GY", "category": "Store" }, "geometry": { "type": "Point", "coordinates": [ -73.898218, 40.817509 ] } },
{ "type": "Feature", "properties": { "name": "430 FOOD", "category": "Store" }, "geometry": { "type": "Point", "coordinates": [ -73.921547, 40.808538 ] } },
{ "type": "Feature", "properties": { "name": "450 LOS SOCIO DELI GROC", "category": "Store" }, "geometry": { "type": "Point", "coordinates": [ -73.912536, 40.823062 ] } },
{ "type": "Feature", "properties": { "name": "4577 MATILDA DELI & GRO", "category": "Store" }, "geometry": { "type": "Point", "coordinates": [ -73.853368, 40.902727 ] } },
{ "type": "Feature", "properties": { "name": "45 RICHMAN PLAZA DELI G", "category": "Store" }, "geometry": { "type": "Point", "coordinates": [ -73.922168, 40.85223 ] } },
{ "type": "Feature", "properties": { "name": "469 EP DELI GROCERY", "category": "Store" }, "geometry": { "type": "Point", "coordinates": [ -73.91605, 40.813083 ] } },
{ "type": "Feature", "properties": { "name": "50 STAR DELI GROCERY MA", "category": "Store" }, "geometry": { "type": "Point", "coordinates": [ -73.903273, 40.822404 ] } },
{ "type": "Feature", "properties": { "name": "520 EAST GROCERY", "category": "Store" }, "geometry": { "type": "Point", "coordinates": [ -73.915258, 40.814413 ] } },
{ "type": "Feature", "properties": { "name": "543 NORTH DELI GROCERY", "category": "Store" }, "geometry": { "type": "Point", "coordinates": [ -73.903933, 40.812184 ] } },
{ "type": "Feature", "properties": { "name": "545 E 137TH ST GROCERY", "category": "Store" }, "geometry": { "type": "Point", "coordinates": [ -73.918417, 40.806316 ] } },
{ "type": "Feature", "properties": { "name": "550 EAST 139TH STREET", "category": "Store" }, "geometry": { "type": "Point", "coordinates": [ -73.917287, 40.807623 ] } },
{ "type": "Feature", "properties": { "name": "555 ALCIBIADES DELI", "category": "Store" }, "geometry": { "type": "Point", "coordinates": [ -73.904056, 40.83242 ] } },
{ "type": "Feature", "properties": { "name": "562 MORRIS 99 CENTS PLU", "category": "Store" }, "geometry": { "type": "Point", "coordinates": [ -73.922518, 40.817922 ] } },
{ "type": "Feature", "properties": { "name": "5706 MOSHOLU AVE DELI", "category": "Store" }, "geometry": { "type": "Point", "coordinates": [ -73.900237, 40.905539 ] } },
{ "type": "Feature", "properties": { "name": "571 EXPRESS DELI GROCER", "category": "Store" }, "geometry": { "type": "Point", "coordinates": [ -73.916613, 40.807339 ] } },
{ "type": "Feature", "properties": { "name": "58 BURNSIDE FOOD", "category": "Store" }, "geometry": { "type": "Point", "coordinates": [ -73.909838, 40.854247 ] } },
{ "type": "Feature", "properties": { "name": "5D HOLDINGS", "category": "Store" }, "geometry": { "type": "Point", "coordinates": [ -73.900516, 40.840661 ] } },
{ "type": "Feature", "properties": { "name": "5 EAST TOBACCO", "category": "Store" }, "geometry": { "type": "Point", "coordinates": [ -73.907287, 40.85379 ] } },
{ "type": "Feature", "properties": { "name": "630 DELI GROCERY CORP", "category": "Store" }, "geometry": { "type": "Point", "coordinates": [ -73.927464, 40.82116 ] } },
{ "type": "Feature", "properties": { "name": "635 GOURMET EXPRESS DEL", "category": "Store" }, "geometry": { "type": "Point", "coordinates": [ -73.901241, 40.831479 ] } },
{ "type": "Feature", "properties": { "name": "640 AS FOOD", "category": "Store" }, "geometry": { "type": "Point", "coordinates": [ -73.864217, 40.837803 ] } },
{ "type": "Feature", "properties": { "name": "654 GREEN MART", "category": "Store" }, "geometry": { "type": "Point", "coordinates": [ -73.908645, 40.816095 ] } },
{ "type": "Feature", "properties": { "name": "681 DELI GROCERY STORE", "category": "Store" }, "geometry": { "type": "Point", "coordinates": [ -73.88524, 40.85441 ] } },
{ "type": "Feature", "properties": { "name": "7\/10 DELI MARKET", "category": "Store" }, "geometry": { "type": "Point", "coordinates": [ -73.924524, 40.828245 ] } },
{ "type": "Feature", "properties": { "name": "732 COURTLANDT DELI", "category": "Store" }, "geometry": { "type": "Point", "coordinates": [ -73.917449, 40.821198 ] } },
{ "type": "Feature", "properties": { "name": "73 HN GROCERY", "category": "Store" }, "geometry": { "type": "Point", "coordinates": [ -73.895668, 40.866717 ] } },
{ "type": "Feature", "properties": { "name": "775 MENA GROCERY", "category": "Store" }, "geometry": { "type": "Point", "coordinates": [ -73.864542, 40.854448 ] } },
{ "type": "Feature", "properties": { "name": "777 ELTON GROCERY", "category": "Store" }, "geometry": { "type": "Point", "coordinates": [ -73.913468, 40.821304 ] } },
{ "type": "Feature", "properties": { "name": "777 GOURMET DELI", "category": "Store" }, "geometry": { "type": "Point", "coordinates": [ -73.84545, 40.842563 ] } },
{ "type": "Feature", "properties": { "name": "777 SEAFOOD PLAZA", "category": "Store" }, "geometry": { "type": "Point", "coordinates": [ -73.917201, 40.807223 ] } },
{ "type": "Feature", "properties": { "name": "7-ELEVEN #39045 A", "category": "Store" }, "geometry": { "type": "Point", "coordinates": [ -73.89587, 40.812098 ] } },
{ "type": "Feature", "properties": { "name": "7 ELEVEN 39084A", "category": "Store" }, "geometry": { "type": "Point", "coordinates": [ -73.926996, 40.819405 ] } },
{ "type": "Feature", "properties": { "name": "7 ELEVEN DELI", "category": "Store" }, "geometry": { "type": "Point", "coordinates": [ -73.8682, 40.865415 ] } },
{ "type": "Feature", "properties": { "name": "7-ELEVEN STORE 32116C", "category": "Store" }, "geometry": { "type": "Point", "coordinates": [ -73.837162, 40.842703 ] } },
{ "type": "Feature", "properties": { "name": "7 ELEVEN STORE 32201B", "category": "Store" }, "geometry": { "type": "Point", "coordinates": [ -73.826643, 40.831148 ] } },
{ "type": "Feature", "properties": { "name": "7 ELEVEN STORE #35887H", "category": "Store" }, "geometry": { "type": "Point", "coordinates": [ -73.916688, 40.849488 ] } },
{ "type": "Feature", "properties": { "name": "7 ELEVEN STORE # 35889A", "category": "Store" }, "geometry": { "type": "Point", "coordinates": [ -73.867664, 40.856363 ] } },
{ "type": "Feature", "properties": { "name": "7-ELEVEN STORE 39365A", "category": "Store" }, "geometry": { "type": "Point", "coordinates": [ -73.885444, 40.858523 ] } },
{ "type": "Feature", "properties": { "name": "7-ELEVEN STORE 39549A", "category": "Store" }, "geometry": { "type": "Point", "coordinates": [ -73.901621, 40.846642 ] } },
{ "type": "Feature", "properties": { "name": "7 FLOOR DELI", "category": "Store" }, "geometry": { "type": "Point", "coordinates": [ -73.899589, 40.879072 ] } },
{ "type": "Feature", "properties": { "name": "833 DISCOUNT", "category": "Store" }, "geometry": { "type": "Point", "coordinates": [ -73.905208, 40.812434 ] } },
{ "type": "Feature", "properties": { "name": "843 MASTER DELI & GROCE", "category": "Store" }, "geometry": { "type": "Point", "coordinates": [ -73.867201, 40.822328 ] } },
{ "type": "Feature", "properties": { "name": "857 COMMUNITY DELI & GR", "category": "Store" }, "geometry": { "type": "Point", "coordinates": [ -73.847691, 40.902199 ] } },
{ "type": "Feature", "properties": { "name": "99 C DISCOUNT PLUS", "category": "Store" }, "geometry": { "type": "Point", "coordinates": [ -73.906334, 40.815425 ] } },
{ "type": "Feature", "properties": { "name": "99 CENTS AMIGO", "category": "Store" }, "geometry": { "type": "Point", "coordinates": [ -73.89653, 40.816014 ] } },
{ "type": "Feature", "properties": { "name": "99 CENTS BEST", "category": "Store" }, "geometry": { "type": "Point", "coordinates": [ -73.895796, 40.855932 ] } },
{ "type": "Feature", "properties": { "name": "99 CENTS DEALS", "category": "Store" }, "geometry": { "type": "Point", "coordinates": [ -73.903482, 40.862745 ] } },
{ "type": "Feature", "properties": { "name": "99 CENTS DREAM", "category": "Store" }, "geometry": { "type": "Point", "coordinates": [ -73.832037, 40.884595 ] } },
{ "type": "Feature", "properties": { "name": "99 CENTS FACTORY", "category": "Store" }, "geometry": { "type": "Point", "coordinates": [ -73.92235, 40.817232 ] } },
{ "type": "Feature", "properties": { "name": "99 CENTS PAPA", "category": "Store" }, "geometry": { "type": "Point", "coordinates": [ -73.914462, 40.814774 ] } },
{ "type": "Feature", "properties": { "name": "99 CENTS PLUS SUPERSTOR", "category": "Store" }, "geometry": { "type": "Point", "coordinates": [ -73.858131, 40.892054 ] } },
{ "type": "Feature", "properties": { "name": "99 CENTS RUSH", "category": "Store" }, "geometry": { "type": "Point", "coordinates": [ -73.881775, 40.82835 ] } },
{ "type": "Feature", "properties": { "name": "99 CENTS STORE", "category": "Store" }, "geometry": { "type": "Point", "coordinates": [ -73.904228, 40.848969 ] } },
{ "type": "Feature", "properties": { "name": "99 CENTS TEAM", "category": "Store" }, "geometry": { "type": "Point", "coordinates": [ -73.889214, 40.818813 ] } },
{ "type": "Feature", "properties": { "name": "99 CENTS TOP GRADE", "category": "Store" }, "geometry": { "type": "Point", "coordinates": [ -73.859529, 40.824112 ] } },
{ "type": "Feature", "properties": { "name": "99 CENTS USA", "category": "Store" }, "geometry": { "type": "Point", "coordinates": [ -73.913034, 40.82018 ] } },
{ "type": "Feature", "properties": { "name": "99 CENTS USA OR MORE", "category": "Store" }, "geometry": { "type": "Point", "coordinates": [ -73.903465, 40.880597 ] } },
{ "type": "Feature", "properties": { "name": "99 CENTS VALUE", "category": "Store" }, "geometry": { "type": "Point", "coordinates": [ -73.908605, 40.82429 ] } },
{ "type": "Feature", "properties": { "name": "99C OR MORE", "category": "Store" }, "geometry": { "type": "Point", "coordinates": [ -73.916922, 40.841285 ] } },
{ "type": "Feature", "properties": { "name": "99C U S 1", "category": "Store" }, "geometry": { "type": "Point", "coordinates": [ -73.891361, 40.820982 ] } },
{ "type": "Feature", "properties": { "name": "99 GRANT", "category": "Store" }, "geometry": { "type": "Point", "coordinates": [ -73.915403, 40.833719 ] } },
{ "type": "Feature", "properties": { "name": "A1 FOOD DISTRIBUTOR", "category": "Store" }, "geometry": { "type": "Point", "coordinates": [ -73.891412, 40.813754 ] } },
{ "type": "Feature", "properties": { "name": "A1 GROCERY STOP", "category": "Store" }, "geometry": { "type": "Point", "coordinates": [ -73.835131, 40.838222 ] } },
{ "type": "Feature", "properties": { "name": "AAAS", "category": "Store" }, "geometry": { "type": "Point", "coordinates": [ -73.916933, 40.807614 ] } },
{ "type": "Feature", "properties": { "name": "AAA WHOLESALE DISTRIBUT", "category": "Store" }, "geometry": { "type": "Point", "coordinates": [ -73.883415, 40.827022 ] } },
{ "type": "Feature", "properties": { "name": "A&A EXPRESS DELI&GRCY", "category": "Store" }, "geometry": { "type": "Point", "coordinates": [ -73.830433, 40.849357 ] } },
{ "type": "Feature", "properties": { "name": "A & A GROCERY & DELI", "category": "Store" }, "geometry": { "type": "Point", "coordinates": [ -73.922243, 40.818541 ] } },
{ "type": "Feature", "properties": { "name": "A&A HUTCH DELI", "category": "Store" }, "geometry": { "type": "Point", "coordinates": [ -73.83403, 40.849357 ] } },
{ "type": "Feature", "properties": { "name": "A A SUPER DELI & GROCER", "category": "Store" }, "geometry": { "type": "Point", "coordinates": [ -73.879478, 40.834164 ] } },
{ "type": "Feature", "properties": { "name": "A&A VARIETY DOUBLE DISC", "category": "Store" }, "geometry": { "type": "Point", "coordinates": [ -73.85537, 40.83603 ] } },
{ "type": "Feature", "properties": { "name": "ABC 99 CENT NYC", "category": "Store" }, "geometry": { "type": "Point", "coordinates": [ -73.923643, 40.809424 ] } },
{ "type": "Feature", "properties": { "name": "AB INTERNATIONAL MARKET", "category": "Store" }, "geometry": { "type": "Point", "coordinates": [ -73.904387, 40.857542 ] } },
{ "type": "Feature", "properties": { "name": "ABREUS GROCERY", "category": "Store" }, "geometry": { "type": "Point", "coordinates": [ -73.899591, 40.830703 ] } },
{ "type": "Feature", "properties": { "name": "A&C GOURMET", "category": "Store" }, "geometry": { "type": "Point", "coordinates": [ -73.921242, 40.815392 ] } },
{ "type": "Feature", "properties": { "name": "ADDEO BAKERS", "category": "Store" }, "geometry": { "type": "Point", "coordinates": [ -73.88744, 40.854558 ] } },
{ "type": "Feature", "properties": { "name": "ADIS PORK STORE", "category": "Store" }, "geometry": { "type": "Point", "coordinates": [ -73.861081, 40.886753 ] } },
{ "type": "Feature", "properties": { "name": "ADOLFO MEAT MARKET", "category": "Store" }, "geometry": { "type": "Point", "coordinates": [ -73.915145, 40.839143 ] } },
{ "type": "Feature", "properties": { "name": "ADUM AFRICAN MARKET", "category": "Store" }, "geometry": { "type": "Point", "coordinates": [ -73.914396, 40.833399 ] } },
{ "type": "Feature", "properties": { "name": "AFRICAN AMERICAN & CARI", "category": "Store" }, "geometry": { "type": "Point", "coordinates": [ -73.910973, 40.837667 ] } },
{ "type": "Feature", "properties": { "name": "AFRICA UNITED FOOD", "category": "Store" }, "geometry": { "type": "Point", "coordinates": [ -73.910988, 40.829781 ] } },
{ "type": "Feature", "properties": { "name": "AF RIVERDALE MEAT MARKE", "category": "Store" }, "geometry": { "type": "Point", "coordinates": [ -73.904491, 40.879151 ] } },
{ "type": "Feature", "properties": { "name": "AFTAB GROCERY & HALAL M", "category": "Store" }, "geometry": { "type": "Point", "coordinates": [ -73.861775, 40.83084 ] } },
{ "type": "Feature", "properties": { "name": "AGBANDJALA RABIETOU", "category": "Store" }, "geometry": { "type": "Point", "coordinates": [ -73.891992, 40.827644 ] } },
{ "type": "Feature", "properties": { "name": "A&G DELI GROCERY", "category": "Store" }, "geometry": { "type": "Point", "coordinates": [ -73.893887, 40.820724 ] } },
{ "type": "Feature", "properties": { "name": "A & G DELI GROCERY III", "category": "Store" }, "geometry": { "type": "Point", "coordinates": [ -73.895907, 40.820653 ] } },
{ "type": "Feature", "properties": { "name": "AJB DELI GROCERY", "category": "Store" }, "geometry": { "type": "Point", "coordinates": [ -73.887474, 40.814632 ] } },
{ "type": "Feature", "properties": { "name": "A L A DELI GROCERY", "category": "Store" }, "geometry": { "type": "Point", "coordinates": [ -73.90403, 40.82805 ] } },
{ "type": "Feature", "properties": { "name": "AL-AGSA HALAL MEAT SPMK", "category": "Store" }, "geometry": { "type": "Point", "coordinates": [ -73.854729, 40.836092 ] } },
{ "type": "Feature", "properties": { "name": "ALAUDDIN SUPERMARKET BR", "category": "Store" }, "geometry": { "type": "Point", "coordinates": [ -73.845626, 40.839226 ] } },
{ "type": "Feature", "properties": { "name": "ALEX FOOD II", "category": "Store" }, "geometry": { "type": "Point", "coordinates": [ -73.919729, 40.84755 ] } },
{ "type": "Feature", "properties": { "name": "ALEX MINI MARKET", "category": "Store" }, "geometry": { "type": "Point", "coordinates": [ -73.867342, 40.867512 ] } },
{ "type": "Feature", "properties": { "name": "ALIANA DELI GROCERY", "category": "Store" }, "geometry": { "type": "Point", "coordinates": [ -73.852038, 40.904195 ] } },
{ "type": "Feature", "properties": { "name": "ALI GOURMET DELI", "category": "Store" }, "geometry": { "type": "Point", "coordinates": [ -73.914224, 40.808236 ] } },
{ "type": "Feature", "properties": { "name": "ALI KINGS DELI GRCY", "category": "Store" }, "geometry": { "type": "Point", "coordinates": [ -73.905028, 40.827176 ] } },
{ "type": "Feature", "properties": { "name": "ALLERTON FISH MARKET", "category": "Store" }, "geometry": { "type": "Point", "coordinates": [ -73.866548, 40.865447 ] } },
{ "type": "Feature", "properties": { "name": "ALLERTON MINI MARKET", "category": "Store" }, "geometry": { "type": "Point", "coordinates": [ -73.864863, 40.865481 ] } },
{ "type": "Feature", "properties": { "name": "ALNUMI DELI", "category": "Store" }, "geometry": { "type": "Point", "coordinates": [ -73.91612, 40.833821 ] } },
{ "type": "Feature", "properties": { "name": "ALTAGRACIA GROCERY", "category": "Store" }, "geometry": { "type": "Point", "coordinates": [ -73.911283, 40.848566 ] } },
{ "type": "Feature", "properties": { "name": "AM GOURMET DELI", "category": "Store" }, "geometry": { "type": "Point", "coordinates": [ -73.855408, 40.855517 ] } },
{ "type": "Feature", "properties": { "name": "AMIGO 99 CENTS - WILLIS", "category": "Store" }, "geometry": { "type": "Point", "coordinates": [ -73.921149, 40.810889 ] } },
{ "type": "Feature", "properties": { "name": "AMIGO DISCT& STATIONARY", "category": "Store" }, "geometry": { "type": "Point", "coordinates": [ -73.901547, 40.819864 ] } },
{ "type": "Feature", "properties": { "name": "AMOR SUPERMARKET", "category": "Store" }, "geometry": { "type": "Point", "coordinates": [ -73.905262, 40.858831 ] } },
{ "type": "Feature", "properties": { "name": "ANA DELI GROCERY", "category": "Store" }, "geometry": { "type": "Point", "coordinates": [ -73.929221, 40.833226 ] } },
{ "type": "Feature", "properties": { "name": "ANALIA DELI GROCERY", "category": "Store" }, "geometry": { "type": "Point", "coordinates": [ -73.875931, 40.826392 ] } },
{ "type": "Feature", "properties": { "name": "ANDREAS DELI GROCERY", "category": "Store" }, "geometry": { "type": "Point", "coordinates": [ -73.888465, 40.828542 ] } },
{ "type": "Feature", "properties": { "name": "ANLY & MADALY DELI-GROC", "category": "Store" }, "geometry": { "type": "Point", "coordinates": [ -73.90979, 40.836806 ] } },
{ "type": "Feature", "properties": { "name": "ANN CLAIRS SALUMERIA", "category": "Store" }, "geometry": { "type": "Point", "coordinates": [ -73.851806, 40.850107 ] } },
{ "type": "Feature", "properties": { "name": "ANN'S COFFEE SHOP & CON", "category": "Store" }, "geometry": { "type": "Point", "coordinates": [ -73.914395, 40.833399 ] } },
{ "type": "Feature", "properties": { "name": "ANTHONYS FAMOUS GRMT DL", "category": "Store" }, "geometry": { "type": "Point", "coordinates": [ -73.878029, 40.880861 ] } },
{ "type": "Feature", "properties": { "name": "ANTILLANA FRESH MEAT MA", "category": "Store" }, "geometry": { "type": "Point", "coordinates": [ -73.89302, 40.824099 ] } },
{ "type": "Feature", "properties": { "name": "ANTILLANA & METRO SUPER", "category": "Store" }, "geometry": { "type": "Point", "coordinates": [ -73.918629, 40.838896 ] } },
{ "type": "Feature", "properties": { "name": "ANTILLANA SUPERMARKET", "category": "Store" }, "geometry": { "type": "Point", "coordinates": [ -73.90662, 40.862799 ] } },
{ "type": "Feature", "properties": { "name": "AOS DISCOUNT", "category": "Store" }, "geometry": { "type": "Point", "coordinates": [ -73.875612, 40.879698 ] } },
{ "type": "Feature", "properties": { "name": "APPLE VALLEY SUPERMARKE", "category": "Store" }, "geometry": { "type": "Point", "coordinates": [ -73.893155, 40.865486 ] } },
{ "type": "Feature", "properties": { "name": "AQUI ME QUEDO GROCERY", "category": "Store" }, "geometry": { "type": "Point", "coordinates": [ -73.922495, 40.831682 ] } },
{ "type": "Feature", "properties": { "name": "AR DELI GROCERY", "category": "Store" }, "geometry": { "type": "Point", "coordinates": [ -73.905355, 40.853429 ] } },
{ "type": "Feature", "properties": { "name": "AS&O GROCERY DELI", "category": "Store" }, "geometry": { "type": "Point", "coordinates": [ -73.867459, 40.863457 ] } },
{ "type": "Feature", "properties": { "name": "ASSOCIATED", "category": "Store" }, "geometry": { "type": "Point", "coordinates": [ -73.923063, 40.83567 ] } },
{ "type": "Feature", "properties": { "name": "ASSOCIATED", "category": "Store" }, "geometry": { "type": "Point", "coordinates": [ -73.914679, 40.838962 ] } },
{ "type": "Feature", "properties": { "name": "ASSOCIATED", "category": "Store" }, "geometry": { "type": "Point", "coordinates": [ -73.892421, 40.831768 ] } },
{ "type": "Feature", "properties": { "name": "ASSOCIATED", "category": "Store" }, "geometry": { "type": "Point", "coordinates": [ -73.91002, 40.831484 ] } },
{ "type": "Feature", "properties": { "name": "ASSOCIATED", "category": "Store" }, "geometry": { "type": "Point", "coordinates": [ -73.922277, 40.852115 ] } },
{ "type": "Feature", "properties": { "name": "ASSOCIATED 867", "category": "Store" }, "geometry": { "type": "Point", "coordinates": [ -73.876095, 40.829061 ] } },
{ "type": "Feature", "properties": { "name": "ASSOCIATED SUPERMARKET", "category": "Store" }, "geometry": { "type": "Point", "coordinates": [ -73.905253, 40.821452 ] } },
{ "type": "Feature", "properties": { "name": "ASSOCIATED SUPERMARKET", "category": "Store" }, "geometry": { "type": "Point", "coordinates": [ -73.865167, 40.816697 ] } },
{ "type": "Feature", "properties": { "name": "ASSOCIATED SUPERMARKET", "category": "Store" }, "geometry": { "type": "Point", "coordinates": [ -73.846776, 40.888164 ] } },
{ "type": "Feature", "properties": { "name": "ASSOCIATED SUPERMARKET", "category": "Store" }, "geometry": { "type": "Point", "coordinates": [ -73.902805, 40.868928 ] } },
{ "type": "Feature", "properties": { "name": "ASSOCIATED SUPERMARKET", "category": "Store" }, "geometry": { "type": "Point", "coordinates": [ -73.916449, 40.833936 ] } },
{ "type": "Feature", "properties": { "name": "ASSOCIATE SUPERMARKET", "category": "Store" }, "geometry": { "type": "Point", "coordinates": [ -73.906378, 40.829897 ] } },
{ "type": "Feature", "properties": { "name": "A TO Z GROCERY & DELI", "category": "Store" }, "geometry": { "type": "Point", "coordinates": [ -73.830007, 40.842059 ] } },
{ "type": "Feature", "properties": { "name": "A TO Z VALUE STORE", "category": "Store" }, "geometry": { "type": "Point", "coordinates": [ -73.89005, 40.869608 ] } },
{ "type": "Feature", "properties": { "name": "AVOCADO DELI", "category": "Store" }, "geometry": { "type": "Point", "coordinates": [ -73.86667, 40.831798 ] } },
{ "type": "Feature", "properties": { "name": "A WORLD OF SPICE", "category": "Store" }, "geometry": { "type": "Point", "coordinates": [ -73.85219, 40.834142 ] } },
{ "type": "Feature", "properties": { "name": "A & Y GROCERY", "category": "Store" }, "geometry": { "type": "Point", "coordinates": [ -73.878549, 40.872974 ] } },
{ "type": "Feature", "properties": { "name": "AZ GROCERY CORP  I", "category": "Store" }, "geometry": { "type": "Point", "coordinates": [ -73.900571, 40.831537 ] } },
{ "type": "Feature", "properties": { "name": "BABIES R US", "category": "Store" }, "geometry": { "type": "Point", "coordinates": [ -73.930612, 40.820226 ] } },
{ "type": "Feature", "properties": { "name": "B&A GOURMET DELI", "category": "Store" }, "geometry": { "type": "Point", "coordinates": [ -73.919579, 40.807073 ] } },
{ "type": "Feature", "properties": { "name": "BANGLA DOWN SUPERMARKET", "category": "Store" }, "geometry": { "type": "Point", "coordinates": [ -73.852885, 40.836294 ] } },
{ "type": "Feature", "properties": { "name": "BANGLA NAGOR MINI MARKE", "category": "Store" }, "geometry": { "type": "Point", "coordinates": [ -73.883637, 40.880129 ] } },
{ "type": "Feature", "properties": { "name": "BANGLATOWN", "category": "Store" }, "geometry": { "type": "Point", "coordinates": [ -73.879711, 40.884683 ] } },
{ "type": "Feature", "properties": { "name": "BANGLATOWN SUPERMARKET", "category": "Store" }, "geometry": { "type": "Point", "coordinates": [ -73.863588, 40.832695 ] } },
{ "type": "Feature", "properties": { "name": "BARAKA AFRICAN MKT STOR", "category": "Store" }, "geometry": { "type": "Point", "coordinates": [ -73.908133, 40.835102 ] } },
{ "type": "Feature", "properties": { "name": "BARBARA DELI FOOD", "category": "Store" }, "geometry": { "type": "Point", "coordinates": [ -73.921837, 40.831031 ] } },
{ "type": "Feature", "properties": { "name": "BARGAIN TEAM", "category": "Store" }, "geometry": { "type": "Point", "coordinates": [ -73.923529, 40.808246 ] } },
{ "type": "Feature", "properties": { "name": "BARINOS MARKET", "category": "Store" }, "geometry": { "type": "Point", "coordinates": [ -73.819208, 40.846185 ] } },
{ "type": "Feature", "properties": { "name": "BATTAMBANG MARKET 2", "category": "Store" }, "geometry": { "type": "Point", "coordinates": [ -73.893723, 40.865306 ] } },
{ "type": "Feature", "properties": { "name": "BAYCHESTER EXPRESS DELI", "category": "Store" }, "geometry": { "type": "Point", "coordinates": [ -73.842281, 40.889305 ] } },
{ "type": "Feature", "properties": { "name": "BBB DELI GROCERY", "category": "Store" }, "geometry": { "type": "Point", "coordinates": [ -73.901416, 40.853038 ] } },
{ "type": "Feature", "properties": { "name": "BBC DELI GROCERY", "category": "Store" }, "geometry": { "type": "Point", "coordinates": [ -73.908195, 40.851192 ] } },
{ "type": "Feature", "properties": { "name": "BELLA DELI MARKET", "category": "Store" }, "geometry": { "type": "Point", "coordinates": [ -73.817923, 40.820205 ] } },
{ "type": "Feature", "properties": { "name": "BENGALI HALAL GRC STORE", "category": "Store" }, "geometry": { "type": "Point", "coordinates": [ -73.847688, 40.837471 ] } },
{ "type": "Feature", "properties": { "name": "BENS MARKET", "category": "Store" }, "geometry": { "type": "Point", "coordinates": [ -73.917626, 40.878698 ] } },
{ "type": "Feature", "properties": { "name": "BEST BROTHERS DELI & GR", "category": "Store" }, "geometry": { "type": "Point", "coordinates": [ -73.915773, 40.854345 ] } },
{ "type": "Feature", "properties": { "name": "BEST H&H", "category": "Store" }, "geometry": { "type": "Point", "coordinates": [ -73.854952, 40.897709 ] } },
{ "type": "Feature", "properties": { "name": "BEST STOP DELI EXPRESS", "category": "Store" }, "geometry": { "type": "Point", "coordinates": [ -73.845396, 40.870034 ] } },
{ "type": "Feature", "properties": { "name": "BEST & TASTY DELI GROCE", "category": "Store" }, "geometry": { "type": "Point", "coordinates": [ -73.924339, 40.815155 ] } },
{ "type": "Feature", "properties": { "name": "BEST VALUE 99 CENTS", "category": "Store" }, "geometry": { "type": "Point", "coordinates": [ -73.884416, 40.842102 ] } },
{ "type": "Feature", "properties": { "name": "BG FRUIT MARKET", "category": "Store" }, "geometry": { "type": "Point", "coordinates": [ -73.901407, 40.820208 ] } },
{ "type": "Feature", "properties": { "name": "BHAGDATTS SPICES & SARE", "category": "Store" }, "geometry": { "type": "Point", "coordinates": [ -73.908525, 40.854962 ] } },
{ "type": "Feature", "properties": { "name": "BHURE MINI MART & DELI", "category": "Store" }, "geometry": { "type": "Point", "coordinates": [ -73.83057, 40.847644 ] } },
{ "type": "Feature", "properties": { "name": "BIANCARDI MEATS", "category": "Store" }, "geometry": { "type": "Point", "coordinates": [ -73.888463, 40.854505 ] } },
{ "type": "Feature", "properties": { "name": "BIG DEAL SUPERMARKET", "category": "Store" }, "geometry": { "type": "Point", "coordinates": [ -73.855625, 40.848389 ] } },
{ "type": "Feature", "properties": { "name": "BIG G DELI", "category": "Store" }, "geometry": { "type": "Point", "coordinates": [ -73.883667, 40.880562 ] } },
{ "type": "Feature", "properties": { "name": "BILLYS DELI&GROCERY STR", "category": "Store" }, "geometry": { "type": "Point", "coordinates": [ -73.904186, 40.862763 ] } },
{ "type": "Feature", "properties": { "name": "BJS WHOLESALE CLUB 176", "category": "Store" }, "geometry": { "type": "Point", "coordinates": [ -73.930612, 40.820226 ] } },
{ "type": "Feature", "properties": { "name": "BLUE STORE DELI", "category": "Store" }, "geometry": { "type": "Point", "coordinates": [ -73.82011, 40.82415 ] } },
{ "type": "Feature", "properties": { "name": "BLVD FOOD", "category": "Store" }, "geometry": { "type": "Point", "coordinates": [ -73.885839, 40.841847 ] } },
{ "type": "Feature", "properties": { "name": "BMCB DELI GROCERY", "category": "Store" }, "geometry": { "type": "Point", "coordinates": [ -73.84973, 40.826309 ] } },
{ "type": "Feature", "properties": { "name": "BM FISH MARKET", "category": "Store" }, "geometry": { "type": "Point", "coordinates": [ -73.922622, 40.817703 ] } },
{ "type": "Feature", "properties": { "name": "B&M FRUIT MARKET AND GR", "category": "Store" }, "geometry": { "type": "Point", "coordinates": [ -73.918158, 40.81621 ] } },
{ "type": "Feature", "properties": { "name": "BOB'S DISCOUNT FURNITUR", "category": "Store" }, "geometry": { "type": "Point", "coordinates": [ -73.825665, 40.869371 ] } },
{ "type": "Feature", "properties": { "name": "BONAO MEATS AND PRODUCE", "category": "Store" }, "geometry": { "type": "Point", "coordinates": [ -73.906023, 40.853312 ] } },
{ "type": "Feature", "properties": { "name": "BONAVITA KEY FOOD 1329", "category": "Store" }, "geometry": { "type": "Point", "coordinates": [ -73.857627, 40.892974 ] } },
{ "type": "Feature", "properties": { "name": "BONOFUL GROCERY", "category": "Store" }, "geometry": { "type": "Point", "coordinates": [ -73.904377, 40.857285 ] } },
{ "type": "Feature", "properties": { "name": "BOSTON GOURMET DELI", "category": "Store" }, "geometry": { "type": "Point", "coordinates": [ -73.889541, 40.836324 ] } },
{ "type": "Feature", "properties": { "name": "BOSTON ROAD DELI GRCY", "category": "Store" }, "geometry": { "type": "Point", "coordinates": [ -73.894422, 40.834615 ] } },
{ "type": "Feature", "properties": { "name": "BP GAS", "category": "Store" }, "geometry": { "type": "Point", "coordinates": [ -73.91106, 40.805362 ] } },
{ "type": "Feature", "properties": { "name": "BRAVE DELI GROCERY", "category": "Store" }, "geometry": { "type": "Point", "coordinates": [ -73.866581, 40.871433 ] } },
{ "type": "Feature", "properties": { "name": "BRAVO SUPERMARKET", "category": "Store" }, "geometry": { "type": "Point", "coordinates": [ -73.906094, 40.859129 ] } },
{ "type": "Feature", "properties": { "name": "BRAVO SUPERMARKET", "category": "Store" }, "geometry": { "type": "Point", "coordinates": [ -73.905818, 40.858818 ] } },
{ "type": "Feature", "properties": { "name": "BRAVO SUPERMARKET", "category": "Store" }, "geometry": { "type": "Point", "coordinates": [ -73.91415, 40.853844 ] } },
{ "type": "Feature", "properties": { "name": "BRAVO SUPERMARKET", "category": "Store" }, "geometry": { "type": "Point", "coordinates": [ -73.906945, 40.844707 ] } },
{ "type": "Feature", "properties": { "name": "BRAVO SUPERMARKET", "category": "Store" }, "geometry": { "type": "Point", "coordinates": [ -73.913464, 40.838497 ] } },
{ "type": "Feature", "properties": { "name": "BRAVO SUPERMARKET", "category": "Store" }, "geometry": { "type": "Point", "coordinates": [ -73.918479, 40.818899 ] } },
{ "type": "Feature", "properties": { "name": "BREA DELI GROCERY", "category": "Store" }, "geometry": { "type": "Point", "coordinates": [ -73.918392, 40.819107 ] } },
{ "type": "Feature", "properties": { "name": "BRIANELLY DELI GROCERY", "category": "Store" }, "geometry": { "type": "Point", "coordinates": [ -73.892631, 40.855823 ] } },
{ "type": "Feature", "properties": { "name": "BRIGGS GOURMET DELI", "category": "Store" }, "geometry": { "type": "Point", "coordinates": [ -73.892607, 40.865233 ] } },
{ "type": "Feature", "properties": { "name": "BRIONE DISCOUNT", "category": "Store" }, "geometry": { "type": "Point", "coordinates": [ -73.866997, 40.837519 ] } },
{ "type": "Feature", "properties": { "name": "BRITO DELI&GROCERY", "category": "Store" }, "geometry": { "type": "Point", "coordinates": [ -73.915294, 40.808662 ] } },
{ "type": "Feature", "properties": { "name": "BRONX 99", "category": "Store" }, "geometry": { "type": "Point", "coordinates": [ -73.877742, 40.828699 ] } },
{ "type": "Feature", "properties": { "name": "BRONX BAKING", "category": "Store" }, "geometry": { "type": "Point", "coordinates": [ -73.909534, 40.801762 ] } },
{ "type": "Feature", "properties": { "name": "BRONX GOURMET FOOD", "category": "Store" }, "geometry": { "type": "Point", "coordinates": [ -73.881237, 40.844352 ] } },
{ "type": "Feature", "properties": { "name": "BRONX MEAT & DELI", "category": "Store" }, "geometry": { "type": "Point", "coordinates": [ -73.901656, 40.85801 ] } },
{ "type": "Feature", "properties": { "name": "BRONX PLAZA DELI GROCRY", "category": "Store" }, "geometry": { "type": "Point", "coordinates": [ -73.908521, 40.853815 ] } },
{ "type": "Feature", "properties": { "name": "BRONX STAR", "category": "Store" }, "geometry": { "type": "Point", "coordinates": [ -73.904621, 40.860794 ] } },
{ "type": "Feature", "properties": { "name": "BRONX VIEW DELI & GROCE", "category": "Store" }, "geometry": { "type": "Point", "coordinates": [ -73.866479, 40.865448 ] } },
{ "type": "Feature", "properties": { "name": "BRONX ZOO DELI", "category": "Store" }, "geometry": { "type": "Point", "coordinates": [ -73.883086, 40.853753 ] } },
{ "type": "Feature", "properties": { "name": "BROTHERHOOD GOURMET DEL", "category": "Store" }, "geometry": { "type": "Point", "coordinates": [ -73.899147, 40.813555 ] } },
{ "type": "Feature", "properties": { "name": "BROTHER MEAT & MARKET", "category": "Store" }, "geometry": { "type": "Point", "coordinates": [ -73.918668, 40.807322 ] } },
{ "type": "Feature", "properties": { "name": "BROTHERS FOOD MARKET", "category": "Store" }, "geometry": { "type": "Point", "coordinates": [ -73.884729, 40.849264 ] } },
{ "type": "Feature", "properties": { "name": "BROTHERS PRODUCE & FISH", "category": "Store" }, "geometry": { "type": "Point", "coordinates": [ -73.853046, 40.873114 ] } },
{ "type": "Feature", "properties": { "name": "BS GROCERY", "category": "Store" }, "geometry": { "type": "Point", "coordinates": [ -73.898845, 40.861427 ] } },
{ "type": "Feature", "properties": { "name": "BURKE 99 CENTS", "category": "Store" }, "geometry": { "type": "Point", "coordinates": [ -73.866349, 40.871427 ] } },
{ "type": "Feature", "properties": { "name": "BURNSIDE AVE FOOD CTR", "category": "Store" }, "geometry": { "type": "Point", "coordinates": [ -73.90513, 40.852968 ] } },
{ "type": "Feature", "properties": { "name": "BURNSIDE'S GOURMET DELI", "category": "Store" }, "geometry": { "type": "Point", "coordinates": [ -73.909041, 40.853832 ] } },
{ "type": "Feature", "properties": { "name": "BUS STOP FOOD #2", "category": "Store" }, "geometry": { "type": "Point", "coordinates": [ -73.92331, 40.817583 ] } },
{ "type": "Feature", "properties": { "name": "BUSY TOWN", "category": "Store" }, "geometry": { "type": "Point", "coordinates": [ -73.851305, 40.833035 ] } },
{ "type": "Feature", "properties": { "name": "BUTCHERS CHOICE MT MKT", "category": "Store" }, "geometry": { "type": "Point", "coordinates": [ -73.916775, 40.8157 ] } },
{ "type": "Feature", "properties": { "name": "BUTCHERS CHOICE THE", "category": "Store" }, "geometry": { "type": "Point", "coordinates": [ -73.915443, 40.815135 ] } },
{ "type": "Feature", "properties": { "name": "BX MARKETITA", "category": "Store" }, "geometry": { "type": "Point", "coordinates": [ -73.914449, 40.853893 ] } },
{ "type": "Feature", "properties": { "name": "C3 DELI", "category": "Store" }, "geometry": { "type": "Point", "coordinates": [ -73.866934, 40.871441 ] } },
{ "type": "Feature", "properties": { "name": "CABRERA BUYING", "category": "Store" }, "geometry": { "type": "Point", "coordinates": [ -73.912115, 40.854016 ] } },
{ "type": "Feature", "properties": { "name": "CACAO DELI GROCERY", "category": "Store" }, "geometry": { "type": "Point", "coordinates": [ -73.888037, 40.820324 ] } },
{ "type": "Feature", "properties": { "name": "CACHEO FOOD", "category": "Store" }, "geometry": { "type": "Point", "coordinates": [ -73.9194, 40.829452 ] } },
{ "type": "Feature", "properties": { "name": "CAKE MASTERS", "category": "Store" }, "geometry": { "type": "Point", "coordinates": [ -73.909168, 40.831291 ] } },
{ "type": "Feature", "properties": { "name": "CALABRIA PORK STORE", "category": "Store" }, "geometry": { "type": "Point", "coordinates": [ -73.888748, 40.854171 ] } },
{ "type": "Feature", "properties": { "name": "CALIFORNIA DELI GROCERY", "category": "Store" }, "geometry": { "type": "Point", "coordinates": [ -73.919691, 40.807752 ] } },
{ "type": "Feature", "properties": { "name": "CAMILLA GROCERY STORE", "category": "Store" }, "geometry": { "type": "Point", "coordinates": [ -73.889667, 40.836251 ] } },
{ "type": "Feature", "properties": { "name": "CAMILOS DELI NO 2", "category": "Store" }, "geometry": { "type": "Point", "coordinates": [ -73.848219, 40.819832 ] } },
{ "type": "Feature", "properties": { "name": "CANCUN DELI GROCERY", "category": "Store" }, "geometry": { "type": "Point", "coordinates": [ -73.897881, 40.821007 ] } },
{ "type": "Feature", "properties": { "name": "CANDY DELI GROCERY", "category": "Store" }, "geometry": { "type": "Point", "coordinates": [ -73.906735, 40.837457 ] } },
{ "type": "Feature", "properties": { "name": "CARIBBEAN VARIETY STORE", "category": "Store" }, "geometry": { "type": "Point", "coordinates": [ -73.880949, 40.828421 ] } },
{ "type": "Feature", "properties": { "name": "CARINO GROCERY", "category": "Store" }, "geometry": { "type": "Point", "coordinates": [ -73.888663, 40.851276 ] } },
{ "type": "Feature", "properties": { "name": "CASA DELLA MOZZARELLA", "category": "Store" }, "geometry": { "type": "Point", "coordinates": [ -73.887398, 40.855472 ] } },
{ "type": "Feature", "properties": { "name": "CASADO DELI GROCERY STR", "category": "Store" }, "geometry": { "type": "Point", "coordinates": [ -73.914161, 40.805422 ] } },
{ "type": "Feature", "properties": { "name": "CASTILLO FAMILY GROCERY", "category": "Store" }, "geometry": { "type": "Point", "coordinates": [ -73.896829, 40.81668 ] } },
{ "type": "Feature", "properties": { "name": "CASTILLO MEAT & PRODUCE", "category": "Store" }, "geometry": { "type": "Point", "coordinates": [ -73.887442, 40.833277 ] } },
{ "type": "Feature", "properties": { "name": "CASTLE DELI & GROCERY", "category": "Store" }, "geometry": { "type": "Point", "coordinates": [ -73.848608, 40.821492 ] } },
{ "type": "Feature", "properties": { "name": "CCA FOOD", "category": "Store" }, "geometry": { "type": "Point", "coordinates": [ -73.87495, 40.831794 ] } },
{ "type": "Feature", "properties": { "name": "C&C FARM", "category": "Store" }, "geometry": { "type": "Point", "coordinates": [ -73.868038, 40.865419 ] } },
{ "type": "Feature", "properties": { "name": "C&G ESPINOSA", "category": "Store" }, "geometry": { "type": "Point", "coordinates": [ -73.916656, 40.822688 ] } },
{ "type": "Feature", "properties": { "name": "CHANG LI SUPERMARKET", "category": "Store" }, "geometry": { "type": "Point", "coordinates": [ -73.855043, 40.834627 ] } },
{ "type": "Feature", "properties": { "name": "CHAVEZ GROCERY & DELI", "category": "Store" }, "geometry": { "type": "Point", "coordinates": [ -73.879644, 40.876284 ] } },
{ "type": "Feature", "properties": { "name": "CHERRY VALLEY", "category": "Store" }, "geometry": { "type": "Point", "coordinates": [ -73.861445, 40.875797 ] } },
{ "type": "Feature", "properties": { "name": "CHERRY VALLEY MARKETPLA", "category": "Store" }, "geometry": { "type": "Point", "coordinates": [ -73.883988, 40.866992 ] } },
{ "type": "Feature", "properties": { "name": "CHERRY VALLEY MARKETPLA", "category": "Store" }, "geometry": { "type": "Point", "coordinates": [ -73.891896, 40.860241 ] } },
{ "type": "Feature", "properties": { "name": "CHOCOLATE PLACE", "category": "Store" }, "geometry": { "type": "Point", "coordinates": [ -73.861384, 40.846208 ] } },
{ "type": "Feature", "properties": { "name": "CHRISTOPHER MINI MARKET", "category": "Store" }, "geometry": { "type": "Point", "coordinates": [ -73.87791, 40.826125 ] } },
{ "type": "Feature", "properties": { "name": "CIRCLE DELI GROCERY", "category": "Store" }, "geometry": { "type": "Point", "coordinates": [ -73.860684, 40.832712 ] } },
{ "type": "Feature", "properties": { "name": "CITY BEST DELI GROCERY", "category": "Store" }, "geometry": { "type": "Point", "coordinates": [ -73.888647, 40.836027 ] } },
{ "type": "Feature", "properties": { "name": "CITY LINE FRUIT STORE", "category": "Store" }, "geometry": { "type": "Point", "coordinates": [ -73.849999, 40.903854 ] } },
{ "type": "Feature", "properties": { "name": "CLAREMONT PARK DELI GRO", "category": "Store" }, "geometry": { "type": "Point", "coordinates": [ -73.905195, 40.839977 ] } },
{ "type": "Feature", "properties": { "name": "CLAY CONVENIENCE STORE", "category": "Store" }, "geometry": { "type": "Point", "coordinates": [ -73.91026, 40.832495 ] } },
{ "type": "Feature", "properties": { "name": "C MARKET FOODS", "category": "Store" }, "geometry": { "type": "Point", "coordinates": [ -73.863489, 40.882395 ] } },
{ "type": "Feature", "properties": { "name": "COFACI FOODS", "category": "Store" }, "geometry": { "type": "Point", "coordinates": [ -73.91673, 40.811867 ] } },
{ "type": "Feature", "properties": { "name": "COMMUNITY DELI FOOD MKT", "category": "Store" }, "geometry": { "type": "Point", "coordinates": [ -73.864727, 40.886199 ] } },
{ "type": "Feature", "properties": { "name": "COMMUNITY GREEN MARKET", "category": "Store" }, "geometry": { "type": "Point", "coordinates": [ -73.867608, 40.858463 ] } },
{ "type": "Feature", "properties": { "name": "COMPARE FOOD", "category": "Store" }, "geometry": { "type": "Point", "coordinates": [ -73.891807, 40.864436 ] } },
{ "type": "Feature", "properties": { "name": "COMPARE FOOD MARKET", "category": "Store" }, "geometry": { "type": "Point", "coordinates": [ -73.914358, 40.805784 ] } },
{ "type": "Feature", "properties": { "name": "COMPARE FOODS", "category": "Store" }, "geometry": { "type": "Point", "coordinates": [ -73.867764, 40.85278 ] } },
{ "type": "Feature", "properties": { "name": "COMPARE FOODS", "category": "Store" }, "geometry": { "type": "Point", "coordinates": [ -73.886637, 40.815377 ] } },
{ "type": "Feature", "properties": { "name": "COMPARE FOOD SUPERMARKE", "category": "Store" }, "geometry": { "type": "Point", "coordinates": [ -73.900705, 40.8682 ] } },
{ "type": "Feature", "properties": { "name": "COMPARE SUPERMARKET", "category": "Store" }, "geometry": { "type": "Point", "coordinates": [ -73.881301, 40.82839 ] } },
{ "type": "Feature", "properties": { "name": "COMPARE SUPERMARKET", "category": "Store" }, "geometry": { "type": "Point", "coordinates": [ -73.905132, 40.827088 ] } },
{ "type": "Feature", "properties": { "name": "CONCOURSE VILLAGE DELI", "category": "Store" }, "geometry": { "type": "Point", "coordinates": [ -73.918207, 40.82348 ] } },
{ "type": "Feature", "properties": { "name": "CONGRESS PHARMACY", "category": "Store" }, "geometry": { "type": "Point", "coordinates": [ -73.903812, 40.812224 ] } },
{ "type": "Feature", "properties": { "name": "CONTENTO FOOD CENTER", "category": "Store" }, "geometry": { "type": "Point", "coordinates": [ -73.911361, 40.854708 ] } },
{ "type": "Feature", "properties": { "name": "COOKIE FACTORY", "category": "Store" }, "geometry": { "type": "Point", "coordinates": [ -73.839631, 40.876466 ] } },
{ "type": "Feature", "properties": { "name": "COURTSIDE GOURMET", "category": "Store" }, "geometry": { "type": "Point", "coordinates": [ -73.917986, 40.826425 ] } },
{ "type": "Feature", "properties": { "name": "COUSINS DELI GROCERY", "category": "Store" }, "geometry": { "type": "Point", "coordinates": [ -73.877915, 40.833959 ] } },
{ "type": "Feature", "properties": { "name": "CRB DELI", "category": "Store" }, "geometry": { "type": "Point", "coordinates": [ -73.903637, 40.860972 ] } },
{ "type": "Feature", "properties": { "name": "CR DOLLARS AND MORE", "category": "Store" }, "geometry": { "type": "Point", "coordinates": [ -73.902001, 40.812739 ] } },
{ "type": "Feature", "properties": { "name": "CRISMELI DELI GROCERY", "category": "Store" }, "geometry": { "type": "Point", "coordinates": [ -73.918348, 40.809048 ] } },
{ "type": "Feature", "properties": { "name": "CROSBY AVENUE DELI", "category": "Store" }, "geometry": { "type": "Point", "coordinates": [ -73.831368, 40.845676 ] } },
{ "type": "Feature", "properties": { "name": "CRUZ DELI GROCERY", "category": "Store" }, "geometry": { "type": "Point", "coordinates": [ -73.925182, 40.836298 ] } },
{ "type": "Feature", "properties": { "name": "CRUZ FOOD MARKET", "category": "Store" }, "geometry": { "type": "Point", "coordinates": [ -73.888605, 40.868755 ] } },
{ "type": "Feature", "properties": { "name": "C&S VALUE STORES", "category": "Store" }, "geometry": { "type": "Point", "coordinates": [ -73.895734, 40.86675 ] } },
{ "type": "Feature", "properties": { "name": "C TOWN", "category": "Store" }, "geometry": { "type": "Point", "coordinates": [ -73.91799, 40.830208 ] } },
{ "type": "Feature", "properties": { "name": "C TOWN", "category": "Store" }, "geometry": { "type": "Point", "coordinates": [ -73.902808, 40.812513 ] } },
{ "type": "Feature", "properties": { "name": "C TOWN", "category": "Store" }, "geometry": { "type": "Point", "coordinates": [ -73.832372, 40.884541 ] } },
{ "type": "Feature", "properties": { "name": "C TOWN", "category": "Store" }, "geometry": { "type": "Point", "coordinates": [ -73.919575, 40.807079 ] } },
{ "type": "Feature", "properties": { "name": "C TOWN", "category": "Store" }, "geometry": { "type": "Point", "coordinates": [ -73.916975, 40.849289 ] } },
{ "type": "Feature", "properties": { "name": "C TOWN", "category": "Store" }, "geometry": { "type": "Point", "coordinates": [ -73.91711, 40.841029 ] } },
{ "type": "Feature", "properties": { "name": "C TOWN", "category": "Store" }, "geometry": { "type": "Point", "coordinates": [ -73.901042, 40.85757 ] } },
{ "type": "Feature", "properties": { "name": "C TOWN", "category": "Store" }, "geometry": { "type": "Point", "coordinates": [ -73.861913, 40.839771 ] } },
{ "type": "Feature", "properties": { "name": "C TOWN", "category": "Store" }, "geometry": { "type": "Point", "coordinates": [ -73.849173, 40.8844 ] } },
{ "type": "Feature", "properties": { "name": "C TOWN", "category": "Store" }, "geometry": { "type": "Point", "coordinates": [ -73.89273, 40.871203 ] } },
{ "type": "Feature", "properties": { "name": "C TOWN", "category": "Store" }, "geometry": { "type": "Point", "coordinates": [ -73.921098, 40.814238 ] } },
{ "type": "Feature", "properties": { "name": "C TOWN", "category": "Store" }, "geometry": { "type": "Point", "coordinates": [ -73.895697, 40.816821 ] } },
{ "type": "Feature", "properties": { "name": "C TOWN", "category": "Store" }, "geometry": { "type": "Point", "coordinates": [ -73.908489, 40.875691 ] } },
{ "type": "Feature", "properties": { "name": "C TOWN", "category": "Store" }, "geometry": { "type": "Point", "coordinates": [ -73.904666, 40.84906 ] } },
{ "type": "Feature", "properties": { "name": "C-TOWN", "category": "Store" }, "geometry": { "type": "Point", "coordinates": [ -73.868003, 40.856636 ] } },
{ "type": "Feature", "properties": { "name": "C-TOWN", "category": "Store" }, "geometry": { "type": "Point", "coordinates": [ -73.903564, 40.834956 ] } },
{ "type": "Feature", "properties": { "name": "C-TOWN", "category": "Store" }, "geometry": { "type": "Point", "coordinates": [ -73.90113, 40.905389 ] } },
{ "type": "Feature", "properties": { "name": "C TOWN 054", "category": "Store" }, "geometry": { "type": "Point", "coordinates": [ -73.860947, 40.832672 ] } },
{ "type": "Feature", "properties": { "name": "C TOWN SUPERMARKET", "category": "Store" }, "geometry": { "type": "Point", "coordinates": [ -73.901179, 40.831458 ] } },
{ "type": "Feature", "properties": { "name": "C TOWN SUPERMARKET", "category": "Store" }, "geometry": { "type": "Point", "coordinates": [ -73.91723, 40.807181 ] } },
{ "type": "Feature", "properties": { "name": "C TOWN SUPERMARKET", "category": "Store" }, "geometry": { "type": "Point", "coordinates": [ -73.885961, 40.854171 ] } },
{ "type": "Feature", "properties": { "name": "C-TOWN SUPERMARKET", "category": "Store" }, "geometry": { "type": "Point", "coordinates": [ -73.901318, 40.874861 ] } },
{ "type": "Feature", "properties": { "name": "C-TOWN SUPERMARKET", "category": "Store" }, "geometry": { "type": "Point", "coordinates": [ -73.883854, 40.874048 ] } },
{ "type": "Feature", "properties": { "name": "C-TOWN SUPERMARKET", "category": "Store" }, "geometry": { "type": "Point", "coordinates": [ -73.86715, 40.897415 ] } },
{ "type": "Feature", "properties": { "name": "CVS PHARMACY 02430", "category": "Store" }, "geometry": { "type": "Point", "coordinates": [ -73.920352, 40.826177 ] } },
{ "type": "Feature", "properties": { "name": "CVS PHARMACY 02433", "category": "Store" }, "geometry": { "type": "Point", "coordinates": [ -73.867733, 40.853856 ] } },
{ "type": "Feature", "properties": { "name": "CVS PHARMACY 02437", "category": "Store" }, "geometry": { "type": "Point", "coordinates": [ -73.866146, 40.865452 ] } },
{ "type": "Feature", "properties": { "name": "CVS PHARMACY 02438", "category": "Store" }, "geometry": { "type": "Point", "coordinates": [ -73.922134, 40.817175 ] } },
{ "type": "Feature", "properties": { "name": "CVS PHARMACY 02551", "category": "Store" }, "geometry": { "type": "Point", "coordinates": [ -73.879381, 40.874429 ] } },
{ "type": "Feature", "properties": { "name": "CVS PHARMACY 02697", "category": "Store" }, "geometry": { "type": "Point", "coordinates": [ -73.827287, 40.852426 ] } },
{ "type": "Feature", "properties": { "name": "CVS PHARMACY 07066", "category": "Store" }, "geometry": { "type": "Point", "coordinates": [ -73.910599, 40.885773 ] } },
{ "type": "Feature", "properties": { "name": "CVS PHARMACY 7067", "category": "Store" }, "geometry": { "type": "Point", "coordinates": [ -73.853302, 40.852781 ] } },
{ "type": "Feature", "properties": { "name": "CVS PHARMACY #8940", "category": "Store" }, "geometry": { "type": "Point", "coordinates": [ -73.871395, 40.830432 ] } },
{ "type": "Feature", "properties": { "name": "CVS PHARMACY #8969", "category": "Store" }, "geometry": { "type": "Point", "coordinates": [ -73.920626, 40.835512 ] } },
{ "type": "Feature", "properties": { "name": "CYPRESS 138 DELI GROCER", "category": "Store" }, "geometry": { "type": "Point", "coordinates": [ -73.91471, 40.805654 ] } },
{ "type": "Feature", "properties": { "name": "DAY & NIGHT DELI GROCER", "category": "Store" }, "geometry": { "type": "Point", "coordinates": [ -73.899566, 40.813949 ] } },
{ "type": "Feature", "properties": { "name": "DC DISCOUNT STORE INC", "category": "Store" }, "geometry": { "type": "Point", "coordinates": [ -73.894864, 40.846479 ] } },
{ "type": "Feature", "properties": { "name": "DEFENDERS GOURMET DELI", "category": "Store" }, "geometry": { "type": "Point", "coordinates": [ -73.914387, 40.824353 ] } },
{ "type": "Feature", "properties": { "name": "DEGNORA DELI GROCERY", "category": "Store" }, "geometry": { "type": "Point", "coordinates": [ -73.901726, 40.831893 ] } },
{ "type": "Feature", "properties": { "name": "DELI FARMS", "category": "Store" }, "geometry": { "type": "Point", "coordinates": [ -73.901333, 40.819366 ] } },
{ "type": "Feature", "properties": { "name": "DELI MINI MARKET", "category": "Store" }, "geometry": { "type": "Point", "coordinates": [ -73.917685, 40.84225 ] } },
{ "type": "Feature", "properties": { "name": "DE LOS MILAGROS GROCERY", "category": "Store" }, "geometry": { "type": "Point", "coordinates": [ -73.92248, 40.809683 ] } },
{ "type": "Feature", "properties": { "name": "DE LUXE DELI", "category": "Store" }, "geometry": { "type": "Point", "coordinates": [ -73.837531, 40.879108 ] } },
{ "type": "Feature", "properties": { "name": "DE REIMER FOOD", "category": "Store" }, "geometry": { "type": "Point", "coordinates": [ -73.838007, 40.881543 ] } },
{ "type": "Feature", "properties": { "name": "DERVIN GROCERY", "category": "Store" }, "geometry": { "type": "Point", "coordinates": [ -73.907845, 40.811206 ] } },
{ "type": "Feature", "properties": { "name": "DESTINY DELI GROCERY", "category": "Store" }, "geometry": { "type": "Point", "coordinates": [ -73.91811, 40.838794 ] } },
{ "type": "Feature", "properties": { "name": "DEVOE GROCERY STORE", "category": "Store" }, "geometry": { "type": "Point", "coordinates": [ -73.877798, 40.839346 ] } },
{ "type": "Feature", "properties": { "name": "D&G DELI", "category": "Store" }, "geometry": { "type": "Point", "coordinates": [ -73.855774, 40.856246 ] } },
{ "type": "Feature", "properties": { "name": "DG GROCERY", "category": "Store" }, "geometry": { "type": "Point", "coordinates": [ -73.922924, 40.817037 ] } },
{ "type": "Feature", "properties": { "name": "DHAKA DISCOUNT&GROCERY", "category": "Store" }, "geometry": { "type": "Point", "coordinates": [ -73.879117, 40.873584 ] } },
{ "type": "Feature", "properties": { "name": "DHAKA SUPERMARKET & HAL", "category": "Store" }, "geometry": { "type": "Point", "coordinates": [ -73.877366, 40.871688 ] } },
{ "type": "Feature", "properties": { "name": "DIAMOND FISH AND MEAT M", "category": "Store" }, "geometry": { "type": "Point", "coordinates": [ -73.910113, 40.834353 ] } },
{ "type": "Feature", "properties": { "name": "DIAS SUPER DELI&GROCERY", "category": "Store" }, "geometry": { "type": "Point", "coordinates": [ -73.860604, 40.828269 ] } },
{ "type": "Feature", "properties": { "name": "DIPLOMAT CATERER", "category": "Store" }, "geometry": { "type": "Point", "coordinates": [ -73.843701, 40.837775 ] } },
{ "type": "Feature", "properties": { "name": "DISCOUNT BAZAAR", "category": "Store" }, "geometry": { "type": "Point", "coordinates": [ -73.910227, 40.831363 ] } },
{ "type": "Feature", "properties": { "name": "DISCOUNT CRAZE", "category": "Store" }, "geometry": { "type": "Point", "coordinates": [ -73.917365, 40.827577 ] } },
{ "type": "Feature", "properties": { "name": "DISCOUNT FOREVER INC", "category": "Store" }, "geometry": { "type": "Point", "coordinates": [ -73.913109, 40.838366 ] } },
{ "type": "Feature", "properties": { "name": "DOLLAR EXPO", "category": "Store" }, "geometry": { "type": "Point", "coordinates": [ -73.912257, 40.847849 ] } },
{ "type": "Feature", "properties": { "name": "DOLLAR GENERAL # 19205", "category": "Store" }, "geometry": { "type": "Point", "coordinates": [ -73.891576, 40.831137 ] } },
{ "type": "Feature", "properties": { "name": "DOLLAR GENERAL # 19207", "category": "Store" }, "geometry": { "type": "Point", "coordinates": [ -73.867459, 40.863457 ] } },
{ "type": "Feature", "properties": { "name": "DOLLAR GENERAL # 19208", "category": "Store" }, "geometry": { "type": "Point", "coordinates": [ -73.865764, 40.878816 ] } },
{ "type": "Feature", "properties": { "name": "DOLLAR GENERAL # 19211", "category": "Store" }, "geometry": { "type": "Point", "coordinates": [ -73.892889, 40.81954 ] } },
{ "type": "Feature", "properties": { "name": "DOLLAR HEAVEN & DISCOUT", "category": "Store" }, "geometry": { "type": "Point", "coordinates": [ -73.855721, 40.840507 ] } },
{ "type": "Feature", "properties": { "name": "DOLLAR JUNCTION", "category": "Store" }, "geometry": { "type": "Point", "coordinates": [ -73.906708, 40.854554 ] } },
{ "type": "Feature", "properties": { "name": "DOLLAR K", "category": "Store" }, "geometry": { "type": "Point", "coordinates": [ -73.864408, 40.854446 ] } },
{ "type": "Feature", "properties": { "name": "DOLLAR MAJIC", "category": "Store" }, "geometry": { "type": "Point", "coordinates": [ -73.867304, 40.868545 ] } },
{ "type": "Feature", "properties": { "name": "DOLLAR TREE #05191", "category": "Store" }, "geometry": { "type": "Point", "coordinates": [ -73.891066, 40.820536 ] } },
{ "type": "Feature", "properties": { "name": "DOLLAR TREE #05774", "category": "Store" }, "geometry": { "type": "Point", "coordinates": [ -73.856498, 40.833678 ] } },
{ "type": "Feature", "properties": { "name": "DOLLAR TREE #07224", "category": "Store" }, "geometry": { "type": "Point", "coordinates": [ -73.916184, 40.806276 ] } },
{ "type": "Feature", "properties": { "name": "DOLLAR TREE 3096", "category": "Store" }, "geometry": { "type": "Point", "coordinates": [ -73.828923, 40.869503 ] } },
{ "type": "Feature", "properties": { "name": "DOLLAR TREE #3788", "category": "Store" }, "geometry": { "type": "Point", "coordinates": [ -73.846074, 40.842859 ] } },
{ "type": "Feature", "properties": { "name": "DOLLAR TREE #4169", "category": "Store" }, "geometry": { "type": "Point", "coordinates": [ -73.861399, 40.886181 ] } },
{ "type": "Feature", "properties": { "name": "DOLLAR TREE  #4274", "category": "Store" }, "geometry": { "type": "Point", "coordinates": [ -73.888478, 40.864033 ] } },
{ "type": "Feature", "properties": { "name": "DOLLAR TREE #4388", "category": "Store" }, "geometry": { "type": "Point", "coordinates": [ -73.861537, 40.866544 ] } },
{ "type": "Feature", "properties": { "name": "DOLLAR TREE  #4514", "category": "Store" }, "geometry": { "type": "Point", "coordinates": [ -73.892421, 40.831768 ] } },
{ "type": "Feature", "properties": { "name": "DOLLAR TREE  #4729", "category": "Store" }, "geometry": { "type": "Point", "coordinates": [ -73.897439, 40.821829 ] } },
{ "type": "Feature", "properties": { "name": "DOLLAR TREE  #4747", "category": "Store" }, "geometry": { "type": "Point", "coordinates": [ -73.9182, 40.839506 ] } },
{ "type": "Feature", "properties": { "name": "DOLLAR TREE  #5004", "category": "Store" }, "geometry": { "type": "Point", "coordinates": [ -73.85685, 40.894367 ] } },
{ "type": "Feature", "properties": { "name": "DOLLAR TREE #5069", "category": "Store" }, "geometry": { "type": "Point", "coordinates": [ -73.924833, 40.815669 ] } },
{ "type": "Feature", "properties": { "name": "DOLLAR TREE  #5150", "category": "Store" }, "geometry": { "type": "Point", "coordinates": [ -73.898422, 40.82737 ] } },
{ "type": "Feature", "properties": { "name": "DOLLAR TREE  #5345", "category": "Store" }, "geometry": { "type": "Point", "coordinates": [ -73.91051, 40.815959 ] } },
{ "type": "Feature", "properties": { "name": "DOLOMA CONVENIENCE STRE", "category": "Store" }, "geometry": { "type": "Point", "coordinates": [ -73.904913, 40.878558 ] } },
{ "type": "Feature", "properties": { "name": "DOUBI DELI AND GROCERY", "category": "Store" }, "geometry": { "type": "Point", "coordinates": [ -73.923803, 40.811852 ] } },
{ "type": "Feature", "properties": { "name": "DOUBLE A SUPER DELI", "category": "Store" }, "geometry": { "type": "Point", "coordinates": [ -73.877651, 40.871996 ] } },
{ "type": "Feature", "properties": { "name": "DOUBLE DISCOUNT STORE", "category": "Store" }, "geometry": { "type": "Point", "coordinates": [ -73.892732, 40.824241 ] } },
{ "type": "Feature", "properties": { "name": "DOWNTOWN BRONX DELI", "category": "Store" }, "geometry": { "type": "Point", "coordinates": [ -73.916952, 40.817909 ] } },
{ "type": "Feature", "properties": { "name": "DREAM ON", "category": "Store" }, "geometry": { "type": "Point", "coordinates": [ -73.850166, 40.903653 ] } },
{ "type": "Feature", "properties": { "name": "DUANE READE 14288", "category": "Store" }, "geometry": { "type": "Point", "coordinates": [ -73.896906, 40.867308 ] } },
{ "type": "Feature", "properties": { "name": "DUANE READE 14459", "category": "Store" }, "geometry": { "type": "Point", "coordinates": [ -73.89995, 40.862353 ] } },
{ "type": "Feature", "properties": { "name": "DYRE FISH MARKET", "category": "Store" }, "geometry": { "type": "Point", "coordinates": [ -73.831287, 40.889345 ] } },
{ "type": "Feature", "properties": { "name": "EAST 169 DELI & GROCERY", "category": "Store" }, "geometry": { "type": "Point", "coordinates": [ -73.912708, 40.835233 ] } },
{ "type": "Feature", "properties": { "name": "EAST 169TH GOURMET DELI", "category": "Store" }, "geometry": { "type": "Point", "coordinates": [ -73.899749, 40.830817 ] } },
{ "type": "Feature", "properties": { "name": "EAST DELI", "category": "Store" }, "geometry": { "type": "Point", "coordinates": [ -73.917806, 40.840067 ] } },
{ "type": "Feature", "properties": { "name": "EASTSIDE SUPERMARKET", "category": "Store" }, "geometry": { "type": "Point", "coordinates": [ -73.900868, 40.860004 ] } },
{ "type": "Feature", "properties": { "name": "EAST TREMONT DELI GRCY", "category": "Store" }, "geometry": { "type": "Point", "coordinates": [ -73.891578, 40.845636 ] } },
{ "type": "Feature", "properties": { "name": "EASY BUY DELI & GROCERY", "category": "Store" }, "geometry": { "type": "Point", "coordinates": [ -73.910764, 40.852164 ] } },
{ "type": "Feature", "properties": { "name": "EAT BETTER GOURMET DELI", "category": "Store" }, "geometry": { "type": "Point", "coordinates": [ -73.866002, 40.871421 ] } },
{ "type": "Feature", "properties": { "name": "EATWELL BAKERY&RESTRNT", "category": "Store" }, "geometry": { "type": "Point", "coordinates": [ -73.852754, 40.839263 ] } },
{ "type": "Feature", "properties": { "name": "EBB CONVENIENCE", "category": "Store" }, "geometry": { "type": "Point", "coordinates": [ -73.860518, 40.887733 ] } },
{ "type": "Feature", "properties": { "name": "EDDIES DELI", "category": "Store" }, "geometry": { "type": "Point", "coordinates": [ -73.879509, 40.875329 ] } },
{ "type": "Feature", "properties": { "name": "EDEN DELI", "category": "Store" }, "geometry": { "type": "Point", "coordinates": [ -73.844171, 40.851418 ] } },
{ "type": "Feature", "properties": { "name": "ELAINY DELI GROCERY", "category": "Store" }, "geometry": { "type": "Point", "coordinates": [ -73.90786, 40.829591 ] } },
{ "type": "Feature", "properties": { "name": "EL CATEY DELI GROCERY", "category": "Store" }, "geometry": { "type": "Point", "coordinates": [ -73.919081, 40.838315 ] } },
{ "type": "Feature", "properties": { "name": "ELDER AVE #2 GROCERY", "category": "Store" }, "geometry": { "type": "Point", "coordinates": [ -73.879251, 40.82892 ] } },
{ "type": "Feature", "properties": { "name": "EL FLACO GROCERY STORE", "category": "Store" }, "geometry": { "type": "Point", "coordinates": [ -73.885338, 40.844373 ] } },
{ "type": "Feature", "properties": { "name": "EL JALAPENO FOOD MARKET", "category": "Store" }, "geometry": { "type": "Point", "coordinates": [ -73.875512, 40.87965 ] } },
{ "type": "Feature", "properties": { "name": "EL PAISANO NO. 3 FISH M", "category": "Store" }, "geometry": { "type": "Point", "coordinates": [ -73.876442, 40.826322 ] } },
{ "type": "Feature", "properties": { "name": "EL REY DELI GROCERY", "category": "Store" }, "geometry": { "type": "Point", "coordinates": [ -73.903919, 40.876305 ] } },
{ "type": "Feature", "properties": { "name": "EL RINCON BANILEJO DELI", "category": "Store" }, "geometry": { "type": "Point", "coordinates": [ -73.924597, 40.847433 ] } },
{ "type": "Feature", "properties": { "name": "EL RUBIO DELI-GROCERY", "category": "Store" }, "geometry": { "type": "Point", "coordinates": [ -73.908055, 40.820448 ] } },
{ "type": "Feature", "properties": { "name": "EL SITO DELI GROCERY", "category": "Store" }, "geometry": { "type": "Point", "coordinates": [ -73.894782, 40.82833 ] } },
{ "type": "Feature", "properties": { "name": "EL TIO DELI GROCERY", "category": "Store" }, "geometry": { "type": "Point", "coordinates": [ -73.87074, 40.834674 ] } },
{ "type": "Feature", "properties": { "name": "ELTON AVE DELI & GROCER", "category": "Store" }, "geometry": { "type": "Point", "coordinates": [ -73.914924, 40.818262 ] } },
{ "type": "Feature", "properties": { "name": "EL TROPICAL DELI GROCER", "category": "Store" }, "geometry": { "type": "Point", "coordinates": [ -73.835711, 40.838708 ] } },
{ "type": "Feature", "properties": { "name": "EL VALLE PRODUCE & DELI", "category": "Store" }, "geometry": { "type": "Point", "coordinates": [ -73.89643, 40.816111 ] } },
{ "type": "Feature", "properties": { "name": "EMERALD FOOD", "category": "Store" }, "geometry": { "type": "Point", "coordinates": [ -73.891395, 40.866727 ] } },
{ "type": "Feature", "properties": { "name": "EMPIRE GOURMET DELI", "category": "Store" }, "geometry": { "type": "Point", "coordinates": [ -73.862914, 40.883426 ] } },
{ "type": "Feature", "properties": { "name": "EMPIRE STATE GROCERY", "category": "Store" }, "geometry": { "type": "Point", "coordinates": [ -73.866167, 40.820953 ] } },
{ "type": "Feature", "properties": { "name": "ENTENMANN BAKERY OUTLET", "category": "Store" }, "geometry": { "type": "Point", "coordinates": [ -73.903969, 40.879886 ] } },
{ "type": "Feature", "properties": { "name": "E & R DELI GROCERY", "category": "Store" }, "geometry": { "type": "Point", "coordinates": [ -73.888278, 40.832909 ] } },
{ "type": "Feature", "properties": { "name": "ESMERALDA DELI GROCERY", "category": "Store" }, "geometry": { "type": "Point", "coordinates": [ -73.897627, 40.823723 ] } },
{ "type": "Feature", "properties": { "name": "ESMERALDA GROCERY", "category": "Store" }, "geometry": { "type": "Point", "coordinates": [ -73.903097, 40.863014 ] } },
{ "type": "Feature", "properties": { "name": "ESPINAL MEAT MARKET", "category": "Store" }, "geometry": { "type": "Point", "coordinates": [ -73.928774, 40.834014 ] } },
{ "type": "Feature", "properties": { "name": "E TREMONT 99 CENTS & MO", "category": "Store" }, "geometry": { "type": "Point", "coordinates": [ -73.848993, 40.842893 ] } },
{ "type": "Feature", "properties": { "name": "E&V BAKERY", "category": "Store" }, "geometry": { "type": "Point", "coordinates": [ -73.867271, 40.84401 ] } },
{ "type": "Feature", "properties": { "name": "EXCEL FOOD MART", "category": "Store" }, "geometry": { "type": "Point", "coordinates": [ -73.887055, 40.812038 ] } },
{ "type": "Feature", "properties": { "name": "EXCELLENT", "category": "Store" }, "geometry": { "type": "Point", "coordinates": [ -73.916169, 40.848497 ] } },
{ "type": "Feature", "properties": { "name": "EXCELLENT DOLLAR", "category": "Store" }, "geometry": { "type": "Point", "coordinates": [ -73.931005, 40.823444 ] } },
{ "type": "Feature", "properties": { "name": "EXTRA JUMBO MARKET PLAC", "category": "Store" }, "geometry": { "type": "Point", "coordinates": [ -73.922759, 40.841376 ] } },
{ "type": "Feature", "properties": { "name": "EZ SERVE GOURMET DELI", "category": "Store" }, "geometry": { "type": "Point", "coordinates": [ -73.879311, 40.873928 ] } },
{ "type": "Feature", "properties": { "name": "EZ SHOP OF BRONX", "category": "Store" }, "geometry": { "type": "Point", "coordinates": [ -73.898211, 40.867621 ] } },
{ "type": "Feature", "properties": { "name": "FAMILY DEAL DISCOUNT", "category": "Store" }, "geometry": { "type": "Point", "coordinates": [ -73.902206, 40.862726 ] } },
{ "type": "Feature", "properties": { "name": "FAMILY DOLLAR #5364", "category": "Store" }, "geometry": { "type": "Point", "coordinates": [ -73.887657, 40.847792 ] } },
{ "type": "Feature", "properties": { "name": "FAMILY DOLLAR #6112", "category": "Store" }, "geometry": { "type": "Point", "coordinates": [ -73.903353, 40.859251 ] } },
{ "type": "Feature", "properties": { "name": "FAMILY DOLLAR #6737", "category": "Store" }, "geometry": { "type": "Point", "coordinates": [ -73.909551, 40.832556 ] } },
{ "type": "Feature", "properties": { "name": "FAMILY DOLLAR #6851", "category": "Store" }, "geometry": { "type": "Point", "coordinates": [ -73.927991, 40.835405 ] } },
{ "type": "Feature", "properties": { "name": "FAMILY DOLLAR #6852", "category": "Store" }, "geometry": { "type": "Point", "coordinates": [ -73.887176, 40.82711 ] } },
{ "type": "Feature", "properties": { "name": "FAMILY DOLLAR #6853", "category": "Store" }, "geometry": { "type": "Point", "coordinates": [ -73.879817, 40.884539 ] } },
{ "type": "Feature", "properties": { "name": "FAMILY DOLLAR #7031", "category": "Store" }, "geometry": { "type": "Point", "coordinates": [ -73.925358, 40.828799 ] } },
{ "type": "Feature", "properties": { "name": "FAMILY DOLLAR #7270", "category": "Store" }, "geometry": { "type": "Point", "coordinates": [ -73.884218, 40.866968 ] } },
{ "type": "Feature", "properties": { "name": "FAMILY DOLLAR #8523", "category": "Store" }, "geometry": { "type": "Point", "coordinates": [ -73.922388, 40.836911 ] } },
{ "type": "Feature", "properties": { "name": "FAMILY DOLLAR STORE #11", "category": "Store" }, "geometry": { "type": "Point", "coordinates": [ -73.858514, 40.814125 ] } },
{ "type": "Feature", "properties": { "name": "FAMILY DOLLAR STORE #11", "category": "Store" }, "geometry": { "type": "Point", "coordinates": [ -73.854971, 40.831354 ] } },
{ "type": "Feature", "properties": { "name": "FAMILY DOLLAR STORE #26", "category": "Store" }, "geometry": { "type": "Point", "coordinates": [ -73.899415, 40.831718 ] } },
{ "type": "Feature", "properties": { "name": "FAMILY DOLLAR STORE #31", "category": "Store" }, "geometry": { "type": "Point", "coordinates": [ -73.875559, 40.872282 ] } },
{ "type": "Feature", "properties": { "name": "FAMILY PRIDE BUTCHER SH", "category": "Store" }, "geometry": { "type": "Point", "coordinates": [ -73.864736, 40.865484 ] } },
{ "type": "Feature", "properties": { "name": "FAMOUS DELI&GROCERY", "category": "Store" }, "geometry": { "type": "Point", "coordinates": [ -73.913048, 40.804952 ] } },
{ "type": "Feature", "properties": { "name": "FANE GROCERY", "category": "Store" }, "geometry": { "type": "Point", "coordinates": [ -73.918928, 40.817887 ] } },
{ "type": "Feature", "properties": { "name": "F A SUPERMARKET", "category": "Store" }, "geometry": { "type": "Point", "coordinates": [ -73.86733, 40.854494 ] } },
{ "type": "Feature", "properties": { "name": "FATONMATA BARRIE", "category": "Store" }, "geometry": { "type": "Point", "coordinates": [ -73.912487, 40.823779 ] } },
{ "type": "Feature", "properties": { "name": "FAWWAZ SHABAIN", "category": "Store" }, "geometry": { "type": "Point", "coordinates": [ -73.888435, 40.835602 ] } },
{ "type": "Feature", "properties": { "name": "FEATHERBED LANE GROCERY", "category": "Store" }, "geometry": { "type": "Point", "coordinates": [ -73.919017, 40.846111 ] } },
{ "type": "Feature", "properties": { "name": "FEEL GOOD PHARMACY", "category": "Store" }, "geometry": { "type": "Point", "coordinates": [ -73.912673, 40.820717 ] } },
{ "type": "Feature", "properties": { "name": "FELINO GROCERY", "category": "Store" }, "geometry": { "type": "Point", "coordinates": [ -73.903682, 40.847587 ] } },
{ "type": "Feature", "properties": { "name": "FINE FARE", "category": "Store" }, "geometry": { "type": "Point", "coordinates": [ -73.889025, 40.863546 ] } },
{ "type": "Feature", "properties": { "name": "FINE FARE", "category": "Store" }, "geometry": { "type": "Point", "coordinates": [ -73.873728, 40.878916 ] } },
{ "type": "Feature", "properties": { "name": "FINE FARE", "category": "Store" }, "geometry": { "type": "Point", "coordinates": [ -73.921242, 40.820747 ] } },
{ "type": "Feature", "properties": { "name": "FINE FARE", "category": "Store" }, "geometry": { "type": "Point", "coordinates": [ -73.8968, 40.822162 ] } },
{ "type": "Feature", "properties": { "name": "FINE FARE", "category": "Store" }, "geometry": { "type": "Point", "coordinates": [ -73.913691, 40.843916 ] } },
{ "type": "Feature", "properties": { "name": "FINE FARE", "category": "Store" }, "geometry": { "type": "Point", "coordinates": [ -73.920622, 40.83551 ] } },
{ "type": "Feature", "properties": { "name": "FINE FARE SUPERMARKET", "category": "Store" }, "geometry": { "type": "Point", "coordinates": [ -73.871796, 40.830223 ] } },
{ "type": "Feature", "properties": { "name": "FINE FARE SUPERMARKET", "category": "Store" }, "geometry": { "type": "Point", "coordinates": [ -73.855786, 40.840349 ] } },
{ "type": "Feature", "properties": { "name": "FINE FARE SUPERMARKET", "category": "Store" }, "geometry": { "type": "Point", "coordinates": [ -73.863287, 40.864787 ] } },
{ "type": "Feature", "properties": { "name": "FINE FARE SUPERMARKET", "category": "Store" }, "geometry": { "type": "Point", "coordinates": [ -73.822962, 40.827325 ] } },
{ "type": "Feature", "properties": { "name": "FINE FARE SUPERMARKET", "category": "Store" }, "geometry": { "type": "Point", "coordinates": [ -73.867147, 40.873545 ] } },
{ "type": "Feature", "properties": { "name": "FINE FARE SUPERMARKET", "category": "Store" }, "geometry": { "type": "Point", "coordinates": [ -73.890624, 40.845166 ] } },
{ "type": "Feature", "properties": { "name": "FINE FARE SUPERMARKET", "category": "Store" }, "geometry": { "type": "Point", "coordinates": [ -73.843337, 40.888913 ] } },
{ "type": "Feature", "properties": { "name": "FINE FARE SUPERMARKET", "category": "Store" }, "geometry": { "type": "Point", "coordinates": [ -73.927729, 40.835866 ] } },
{ "type": "Feature", "properties": { "name": "FINE FARE SUPERMARKET", "category": "Store" }, "geometry": { "type": "Point", "coordinates": [ -73.89488, 40.834247 ] } },
{ "type": "Feature", "properties": { "name": "FINE FARE SUPERMARKET", "category": "Store" }, "geometry": { "type": "Point", "coordinates": [ -73.865677, 40.878341 ] } },
{ "type": "Feature", "properties": { "name": "FINE FARE SUPERMARKETS", "category": "Store" }, "geometry": { "type": "Point", "coordinates": [ -73.867255, 40.837465 ] } },
{ "type": "Feature", "properties": { "name": "FINE FRESH", "category": "Store" }, "geometry": { "type": "Point", "coordinates": [ -73.84828, 40.820094 ] } },
{ "type": "Feature", "properties": { "name": "FIRST FOOD MART", "category": "Store" }, "geometry": { "type": "Point", "coordinates": [ -73.903269, 40.835404 ] } },
{ "type": "Feature", "properties": { "name": "FIVE BELOW #354", "category": "Store" }, "geometry": { "type": "Point", "coordinates": [ -73.82438, 40.869088 ] } },
{ "type": "Feature", "properties": { "name": "FOOD BAZAAR", "category": "Store" }, "geometry": { "type": "Point", "coordinates": [ -73.903088, 40.834913 ] } },
{ "type": "Feature", "properties": { "name": "FOOD BAZAAR", "category": "Store" }, "geometry": { "type": "Point", "coordinates": [ -73.874454, 40.823933 ] } },
{ "type": "Feature", "properties": { "name": "FOOD BAZAAR", "category": "Store" }, "geometry": { "type": "Point", "coordinates": [ -73.920352, 40.826177 ] } },
{ "type": "Feature", "properties": { "name": "FOOD BAZAAR", "category": "Store" }, "geometry": { "type": "Point", "coordinates": [ -73.911246, 40.824839 ] } },
{ "type": "Feature", "properties": { "name": "FOOD CHOICE MARKET", "category": "Store" }, "geometry": { "type": "Point", "coordinates": [ -73.867603, 40.858674 ] } },
{ "type": "Feature", "properties": { "name": "FOOD CHOICE NO 1", "category": "Store" }, "geometry": { "type": "Point", "coordinates": [ -73.896106, 40.858267 ] } },
{ "type": "Feature", "properties": { "name": "FOOD DINASTY SUPERMKT", "category": "Store" }, "geometry": { "type": "Point", "coordinates": [ -73.902721, 40.862705 ] } },
{ "type": "Feature", "properties": { "name": "FOOD DYNASTY SUPERMARKE", "category": "Store" }, "geometry": { "type": "Point", "coordinates": [ -73.909231, 40.853877 ] } },
{ "type": "Feature", "properties": { "name": "FOOD DYNASTY SUPERMKT", "category": "Store" }, "geometry": { "type": "Point", "coordinates": [ -73.892904, 40.883104 ] } },
{ "type": "Feature", "properties": { "name": "FOOD FAIR FRESH MARKET", "category": "Store" }, "geometry": { "type": "Point", "coordinates": [ -73.890066, 40.821088 ] } },
{ "type": "Feature", "properties": { "name": "FOOD SHOP", "category": "Store" }, "geometry": { "type": "Point", "coordinates": [ -73.929576, 40.819222 ] } },
{ "type": "Feature", "properties": { "name": "FOOD TOWN", "category": "Store" }, "geometry": { "type": "Point", "coordinates": [ -73.912094, 40.821614 ] } },
{ "type": "Feature", "properties": { "name": "FOODTOWN", "category": "Store" }, "geometry": { "type": "Point", "coordinates": [ -73.92024, 40.846189 ] } },
{ "type": "Feature", "properties": { "name": "FOODTOWN", "category": "Store" }, "geometry": { "type": "Point", "coordinates": [ -73.861207, 40.837408 ] } },
{ "type": "Feature", "properties": { "name": "FOODTOWN", "category": "Store" }, "geometry": { "type": "Point", "coordinates": [ -73.905036, 40.878386 ] } },
{ "type": "Feature", "properties": { "name": "FOODTOWN", "category": "Store" }, "geometry": { "type": "Point", "coordinates": [ -73.85841, 40.865487 ] } },
{ "type": "Feature", "properties": { "name": "FOODTOWN 582", "category": "Store" }, "geometry": { "type": "Point", "coordinates": [ -73.878901, 40.873353 ] } },
{ "type": "Feature", "properties": { "name": "FOODTOWN #585", "category": "Store" }, "geometry": { "type": "Point", "coordinates": [ -73.924752, 40.82785 ] } },
{ "type": "Feature", "properties": { "name": "FOODTOWN SUPERMARKET", "category": "Store" }, "geometry": { "type": "Point", "coordinates": [ -73.847816, 40.876564 ] } },
{ "type": "Feature", "properties": { "name": "FOOD UNIVERSE", "category": "Store" }, "geometry": { "type": "Point", "coordinates": [ -73.829693, 40.876073 ] } },
{ "type": "Feature", "properties": { "name": "FOOD UNIVERSE", "category": "Store" }, "geometry": { "type": "Point", "coordinates": [ -73.822057, 40.865086 ] } },
{ "type": "Feature", "properties": { "name": "FOOD UNIVERSE", "category": "Store" }, "geometry": { "type": "Point", "coordinates": [ -73.828256, 40.86957 ] } },
{ "type": "Feature", "properties": { "name": "FOOD UNIVERSE MARKET PL", "category": "Store" }, "geometry": { "type": "Point", "coordinates": [ -73.904812, 40.852756 ] } },
{ "type": "Feature", "properties": { "name": "FOOD UNIVERSE MARKETPLA", "category": "Store" }, "geometry": { "type": "Point", "coordinates": [ -73.906094, 40.859129 ] } },
{ "type": "Feature", "properties": { "name": "FOOD UNIVERSE MARKETPLA", "category": "Store" }, "geometry": { "type": "Point", "coordinates": [ -73.905181, 40.862493 ] } },
{ "type": "Feature", "properties": { "name": "FORDHAM OF THE BRONX DE", "category": "Store" }, "geometry": { "type": "Point", "coordinates": [ -73.898533, 40.861719 ] } },
{ "type": "Feature", "properties": { "name": "FOREST DELI GROCERY", "category": "Store" }, "geometry": { "type": "Point", "coordinates": [ -73.906152, 40.818369 ] } },
{ "type": "Feature", "properties": { "name": "FOREVER DEAL", "category": "Store" }, "geometry": { "type": "Point", "coordinates": [ -73.899836, 40.831441 ] } },
{ "type": "Feature", "properties": { "name": "FOUR STAR DELI GROCERY", "category": "Store" }, "geometry": { "type": "Point", "coordinates": [ -73.889528, 40.819571 ] } },
{ "type": "Feature", "properties": { "name": "FRANCO FRUIT& VEGETABLE", "category": "Store" }, "geometry": { "type": "Point", "coordinates": [ -73.905311, 40.853041 ] } },
{ "type": "Feature", "properties": { "name": "FREDARLET DELI GROCERY", "category": "Store" }, "geometry": { "type": "Point", "coordinates": [ -73.913246, 40.843346 ] } },
{ "type": "Feature", "properties": { "name": "FRESA DELI & CAKES", "category": "Store" }, "geometry": { "type": "Point", "coordinates": [ -73.917634, 40.820811 ] } },
{ "type": "Feature", "properties": { "name": "FRESH CITY MARKET", "category": "Store" }, "geometry": { "type": "Point", "coordinates": [ -73.896186, 40.861581 ] } },
{ "type": "Feature", "properties": { "name": "FRESH FRUIT&FISH MKT", "category": "Store" }, "geometry": { "type": "Point", "coordinates": [ -73.845335, 40.870001 ] } },
{ "type": "Feature", "properties": { "name": "FRESH KING MARKET", "category": "Store" }, "geometry": { "type": "Point", "coordinates": [ -73.917221, 40.878944 ] } },
{ "type": "Feature", "properties": { "name": "FRESH MARKET DELI", "category": "Store" }, "geometry": { "type": "Point", "coordinates": [ -73.870784, 40.829281 ] } },
{ "type": "Feature", "properties": { "name": "FRIAS DELI FOOD", "category": "Store" }, "geometry": { "type": "Point", "coordinates": [ -73.922334, 40.818335 ] } },
{ "type": "Feature", "properties": { "name": "FRIENDS HALAL MT SPRMKT", "category": "Store" }, "geometry": { "type": "Point", "coordinates": [ -73.854943, 40.836069 ] } },
{ "type": "Feature", "properties": { "name": "F&Y DELI GROCERY", "category": "Store" }, "geometry": { "type": "Point", "coordinates": [ -73.8573, 40.831721 ] } },
{ "type": "Feature", "properties": { "name": "GANZO FOOD MARKET", "category": "Store" }, "geometry": { "type": "Point", "coordinates": [ -73.868017, 40.858145 ] } },
{ "type": "Feature", "properties": { "name": "GARCIA MINI MARKET", "category": "Store" }, "geometry": { "type": "Point", "coordinates": [ -73.915687, 40.834125 ] } },
{ "type": "Feature", "properties": { "name": "GARDEN FRESH GOURMET", "category": "Store" }, "geometry": { "type": "Point", "coordinates": [ -73.85723, 40.847667 ] } },
{ "type": "Feature", "properties": { "name": "GARDEN GOURMET", "category": "Store" }, "geometry": { "type": "Point", "coordinates": [ -73.903258, 40.880874 ] } },
{ "type": "Feature", "properties": { "name": "GARDEN MARKET GRCRY&DEL", "category": "Store" }, "geometry": { "type": "Point", "coordinates": [ -73.88388, 40.867576 ] } },
{ "type": "Feature", "properties": { "name": "GARVI DELI GROCERY", "category": "Store" }, "geometry": { "type": "Point", "coordinates": [ -73.897841, 40.83283 ] } },
{ "type": "Feature", "properties": { "name": "GASKIYA AFRICAN MARKET", "category": "Store" }, "geometry": { "type": "Point", "coordinates": [ -73.908359, 40.852739 ] } },
{ "type": "Feature", "properties": { "name": "GENERAL FOOD STORE", "category": "Store" }, "geometry": { "type": "Point", "coordinates": [ -73.857706, 40.813353 ] } },
{ "type": "Feature", "properties": { "name": "GENERAL NUTRITION 1041", "category": "Store" }, "geometry": { "type": "Point", "coordinates": [ -73.867698, 40.855158 ] } },
{ "type": "Feature", "properties": { "name": "GERARD FOOD MARKET", "category": "Store" }, "geometry": { "type": "Point", "coordinates": [ -73.926623, 40.824642 ] } },
{ "type": "Feature", "properties": { "name": "G&G DELI GROCERY", "category": "Store" }, "geometry": { "type": "Point", "coordinates": [ -73.906686, 40.829186 ] } },
{ "type": "Feature", "properties": { "name": "G & G GOURMET DELI", "category": "Store" }, "geometry": { "type": "Point", "coordinates": [ -73.887232, 40.875815 ] } },
{ "type": "Feature", "properties": { "name": "GIGIS MINI MARKET", "category": "Store" }, "geometry": { "type": "Point", "coordinates": [ -73.857043, 40.830607 ] } },
{ "type": "Feature", "properties": { "name": "GIORDANOS BIG G", "category": "Store" }, "geometry": { "type": "Point", "coordinates": [ -73.852272, 40.844344 ] } },
{ "type": "Feature", "properties": { "name": "GLOBAL GOURMET FOOD & G", "category": "Store" }, "geometry": { "type": "Point", "coordinates": [ -73.883138, 40.880573 ] } },
{ "type": "Feature", "properties": { "name": "GNK BI-ENERGY", "category": "Store" }, "geometry": { "type": "Point", "coordinates": [ -73.861841, 40.865542 ] } },
{ "type": "Feature", "properties": { "name": "GNP SUNIL", "category": "Store" }, "geometry": { "type": "Point", "coordinates": [ -73.911541, 40.885955 ] } },
{ "type": "Feature", "properties": { "name": "GOLD COAST TRADING CO", "category": "Store" }, "geometry": { "type": "Point", "coordinates": [ -73.926327, 40.814985 ] } },
{ "type": "Feature", "properties": { "name": "GOLDEN APPLE TREE SUPER", "category": "Store" }, "geometry": { "type": "Point", "coordinates": [ -73.905499, 40.817839 ] } },
{ "type": "Feature", "properties": { "name": "GOLDEN MANGO", "category": "Store" }, "geometry": { "type": "Point", "coordinates": [ -73.843735, 40.8196 ] } },
{ "type": "Feature", "properties": { "name": "GOLDEN PRODUCE", "category": "Store" }, "geometry": { "type": "Point", "coordinates": [ -73.877431, 40.871759 ] } },
{ "type": "Feature", "properties": { "name": "GOMEZ FOOD", "category": "Store" }, "geometry": { "type": "Point", "coordinates": [ -73.917416, 40.846358 ] } },
{ "type": "Feature", "properties": { "name": "GONZALEZ GROCERY STORE", "category": "Store" }, "geometry": { "type": "Point", "coordinates": [ -73.89297, 40.865865 ] } },
{ "type": "Feature", "properties": { "name": "GOOD FORTUNE DISCOUNT", "category": "Store" }, "geometry": { "type": "Point", "coordinates": [ -73.879537, 40.875532 ] } },
{ "type": "Feature", "properties": { "name": "GOOD N NATURAL", "category": "Store" }, "geometry": { "type": "Point", "coordinates": [ -73.867676, 40.855927 ] } },
{ "type": "Feature", "properties": { "name": "GOOD VALUE 99 CENTS STR", "category": "Store" }, "geometry": { "type": "Point", "coordinates": [ -73.901662, 40.858012 ] } },
{ "type": "Feature", "properties": { "name": "GRADYS COLD BREW", "category": "Store" }, "geometry": { "type": "Point", "coordinates": [ -73.893395, 40.815698 ] } },
{ "type": "Feature", "properties": { "name": "GRAND AVENUE GOURMET FO", "category": "Store" }, "geometry": { "type": "Point", "coordinates": [ -73.90955, 40.854016 ] } },
{ "type": "Feature", "properties": { "name": "GRAND DOLLAR", "category": "Store" }, "geometry": { "type": "Point", "coordinates": [ -73.903413, 40.862585 ] } },
{ "type": "Feature", "properties": { "name": "GRAND EXPRESS DELI & GR", "category": "Store" }, "geometry": { "type": "Point", "coordinates": [ -73.907489, 40.856468 ] } },
{ "type": "Feature", "properties": { "name": "GRAND FISH MARKET", "category": "Store" }, "geometry": { "type": "Point", "coordinates": [ -73.916253, 40.833866 ] } },
{ "type": "Feature", "properties": { "name": "GRCY DELI KINGSBRIDGE", "category": "Store" }, "geometry": { "type": "Point", "coordinates": [ -73.907822, 40.878131 ] } },
{ "type": "Feature", "properties": { "name": "GREEN APPLE DELI AND GR", "category": "Store" }, "geometry": { "type": "Point", "coordinates": [ -73.825195, 40.82959 ] } },
{ "type": "Feature", "properties": { "name": "GREEN FAIR FRUIT&VGTBLS", "category": "Store" }, "geometry": { "type": "Point", "coordinates": [ -73.864495, 40.871398 ] } },
{ "type": "Feature", "properties": { "name": "GREEN LAND FARM DELI&GR", "category": "Store" }, "geometry": { "type": "Point", "coordinates": [ -73.867476, 40.899126 ] } },
{ "type": "Feature", "properties": { "name": "GREENLAND TROPICAL DELI", "category": "Store" }, "geometry": { "type": "Point", "coordinates": [ -73.916706, 40.849759 ] } },
{ "type": "Feature", "properties": { "name": "GREEN OLIVES FAST MART", "category": "Store" }, "geometry": { "type": "Point", "coordinates": [ -73.86539, 40.845375 ] } },