{
"type": "FeatureCollection",
"name": "test",
"crs": { "type": "name", "properties": { "name": "urn:ogc:def:crs:OGC:1.3:CRS84" } },
"features": [
{ "type": "Feature", "properties": { "name": "1001 SAN MIGUEL FD CNTR", "type": "Store", "capacity_amt": 1100.0, "capacity_unit_col": "sqft" }, "geometry": { "type": "Point", "coordinates": [ -73.919613, 40.829061 ] } },
{ "type": "Feature", "properties": { "name": "1029 FOOD PLAZA", "type": "Store", "capacity_amt": 2000.0, "capacity_unit_col": "sqft" }, "geometry": { "type": "Point", "coordinates": [ -73.902853, 40.854755 ] } },
{ "type": "Feature", "properties": { "name": "1078 DELI GROCERY", "type": "Store", "capacity_amt": 1200.0, "capacity_unit_col": "sqft" }, "geometry": { "type": "Point", "coordinates": [ -73.890589, 40.825105 ] } },
{ "type": "Feature", "properties": { "name": "1086 LUNA DELI GROCERY", "type": "Store", "capacity_amt": 1500.0, "capacity_unit_col": "sqft" }, "geometry": { "type": "Point", "coordinates": [ -73.905123, 40.827096 ] } },
{ "type": "Feature", "properties": { "name": "109 AJ DELI GROCERY", "type": "Store", "capacity_amt": 2400.0, "capacity_unit_col": "sqft" }, "geometry": { "type": "Point", "coordinates": [ -73.907137, 40.850537 ] } },
{ "type": "Feature", "properties": { "name": "1105 TINTON DELI GRCY", "type": "Store", "capacity_amt": 1200.0, "capacity_unit_col": "sqft" }, "geometry": { "type": "Point", "coordinates": [ -73.901498, 40.826607 ] } },
{ "type": "Feature", "properties": { "name": "1150 WEBSTER PHARMACY I", "type": "Store", "capacity_amt": 3400.0, "capacity_unit_col": "sqft" }, "geometry": { "type": "Point", "coordinates": [ -73.91063, 40.830425 ] } },
{ "type": "Feature", "properties": { "name": "1208 STRATFORD AVE", "type": "Store", "capacity_amt": 2000.0, "capacity_unit_col": "sqft" }, "geometry": { "type": "Point", "coordinates": [ -73.875621, 40.829671 ] } },
{ "type": "Feature", "properties": { "name": "123 MEAT FRUIT & VEGETA", "type": "Store", "capacity_amt": 1300.0, "capacity_unit_col": "sqft" }, "geometry": { "type": "Point", "coordinates": [ -73.902627, 40.86883 ] } },
{ "type": "Feature", "properties": { "name": "125 W 165 ST GROCERY", "type": "Store", "capacity_amt": 1900.0, "capacity_unit_col": "sqft" }, "geometry": { "type": "Point", "coordinates": [ -73.92806, 40.834279 ] } },
{ "type": "Feature", "properties": { "name": "1296 SHERIDAN DELI GRCR", "type": "Store", "capacity_amt": 1500.0, "capacity_unit_col": "sqft" }, "geometry": { "type": "Point", "coordinates": [ -73.914557, 40.836242 ] } },
{ "type": "Feature", "properties": { "name": "129 CARIBE", "type": "Store", "capacity_amt": 1200.0, "capacity_unit_col": "sqft" }, "geometry": { "type": "Point", "coordinates": [ -73.913639, 40.849999 ] } },
{ "type": "Feature", "properties": { "name": "12E 196TH STREET FOOD", "type": "Store", "capacity_amt": 1800.0, "capacity_unit_col": "sqft" }, "geometry": { "type": "Point", "coordinates": [ -73.89547, 40.868979 ] } },
{ "type": "Feature", "properties": { "name": "134TH MEAT MARKET INC T", "type": "Store", "capacity_amt": 2500.0, "capacity_unit_col": "sqft" }, "geometry": { "type": "Point", "coordinates": [ -73.920809, 40.804903 ] } },
{ "type": "Feature", "properties": { "name": "1359 OGDEN GROCERY", "type": "Store", "capacity_amt": 2500.0, "capacity_unit_col": "sqft" }, "geometry": { "type": "Point", "coordinates": [ -73.924951, 40.841357 ] } },
{ "type": "Feature", "properties": { "name": "1370 JEROME 99 STORE", "type": "Store", "capacity_amt": 8000.0, "capacity_unit_col": "sqft" }, "geometry": { "type": "Point", "coordinates": [ -73.917933, 40.839886 ] } },
{ "type": "Feature", "properties": { "name": "1460 GOURMET DELI", "type": "Store", "capacity_amt": 1200.0, "capacity_unit_col": "sqft" }, "geometry": { "type": "Point", "coordinates": [ -73.89079, 40.832447 ] } },
{ "type": "Feature", "properties": { "name": "150 AURORA GROCERY STR", "type": "Store", "capacity_amt": 1500.0, "capacity_unit_col": "sqft" }, "geometry": { "type": "Point", "coordinates": [ -73.909289, 40.844843 ] } },
{ "type": "Feature", "properties": { "name": "1517 DELI & DISCOUNT", "type": "Store", "capacity_amt": 2000.0, "capacity_unit_col": "sqft" }, "geometry": { "type": "Point", "coordinates": [ -73.879276, 40.828569 ] } },
{ "type": "Feature", "properties": { "name": "152ND STREET FOOD", "type": "Store", "capacity_amt": 1100.0, "capacity_unit_col": "sqft" }, "geometry": { "type": "Point", "coordinates": [ -73.904145, 40.815213 ] } },
{ "type": "Feature", "properties": { "name": "152 VM GROCERY", "type": "Store", "capacity_amt": 1200.0, "capacity_unit_col": "sqft" }, "geometry": { "type": "Point", "coordinates": [ -73.914034, 40.84016 ] } },
{ "type": "Feature", "properties": { "name": "1530 FOOD MARKET & 99 C", "type": "Store", "capacity_amt": 1300.0, "capacity_unit_col": "sqft" }, "geometry": { "type": "Point", "coordinates": [ -73.921711, 40.845954 ] } },
{ "type": "Feature", "properties": { "name": "1530 MACOMBS GROCERY DE", "type": "Store", "capacity_amt": 2400.0, "capacity_unit_col": "sqft" }, "geometry": { "type": "Point", "coordinates": [ -73.917631, 40.843507 ] } },
{ "type": "Feature", "properties": { "name": "157 GERARD", "type": "Store", "capacity_amt": 1500.0, "capacity_unit_col": "sqft" }, "geometry": { "type": "Point", "coordinates": [ -73.926523, 40.825489 ] } },
{ "type": "Feature", "properties": { "name": "161 SHADDAD", "type": "Store", "capacity_amt": 1800.0, "capacity_unit_col": "sqft" }, "geometry": { "type": "Point", "coordinates": [ -73.909207, 40.822353 ] } },
{ "type": "Feature", "properties": { "name": "163 ASHLEY DELI GROCERY", "type": "Store", "capacity_amt": 1500.0, "capacity_unit_col": "sqft" }, "geometry": { "type": "Point", "coordinates": [ -73.908802, 40.823896 ] } },
{ "type": "Feature", "properties": { "name": "165 STREET MARKET", "type": "Store", "capacity_amt": 2200.0, "capacity_unit_col": "sqft" }, "geometry": { "type": "Point", "coordinates": [ -73.917284, 40.829654 ] } },
{ "type": "Feature", "properties": { "name": "166TH DELI AND GROCERY", "type": "Store", "capacity_amt": 1600.0, "capacity_unit_col": "sqft" }, "geometry": { "type": "Point", "coordinates": [ -73.918834, 40.831594 ] } },
{ "type": "Feature", "properties": { "name": "168TH SUPERIOR MARKET", "type": "Store", "capacity_amt": 1300.0, "capacity_unit_col": "sqft" }, "geometry": { "type": "Point", "coordinates": [ -73.924567, 40.838298 ] } },
{ "type": "Feature", "properties": { "name": "1701 GROCERY", "type": "Store", "capacity_amt": 1200.0, "capacity_unit_col": "sqft" }, "geometry": { "type": "Point", "coordinates": [ -73.866608, 40.843551 ] } },
{ "type": "Feature", "properties": { "name": "1710 LOS SOCIO", "type": "Store", "capacity_amt": 1200.0, "capacity_unit_col": "sqft" }, "geometry": { "type": "Point", "coordinates": [ -73.918032, 40.848449 ] } },
{ "type": "Feature", "properties": { "name": "171 WEST CORP", "type": "Store", "capacity_amt": 1800.0, "capacity_unit_col": "sqft" }, "geometry": { "type": "Point", "coordinates": [ -73.914754, 40.853963 ] } },
{ "type": "Feature", "properties": { "name": "1772 RANDALL AVE FOOD", "type": "Store", "capacity_amt": 1200.0, "capacity_unit_col": "sqft" }, "geometry": { "type": "Point", "coordinates": [ -73.864241, 40.816832 ] } },
{ "type": "Feature", "properties": { "name": "178 GOURMET DELI", "type": "Store", "capacity_amt": 1100.0, "capacity_unit_col": "sqft" }, "geometry": { "type": "Point", "coordinates": [ -73.910754, 40.852254 ] } },
{ "type": "Feature", "properties": { "name": "180 LA DELI GROCERY", "type": "Store", "capacity_amt": 1100.0, "capacity_unit_col": "sqft" }, "geometry": { "type": "Point", "coordinates": [ -73.918213, 40.832816 ] } },
{ "type": "Feature", "properties": { "name": "180 PENA GROCERY", "type": "Store", "capacity_amt": 1500.0, "capacity_unit_col": "sqft" }, "geometry": { "type": "Point", "coordinates": [ -73.927698, 40.837853 ] } },
{ "type": "Feature", "properties": { "name": "183 GOLD FISH MARKET", "type": "Store", "capacity_amt": 1500.0, "capacity_unit_col": "sqft" }, "geometry": { "type": "Point", "coordinates": [ -73.904438, 40.858549 ] } },
{ "type": "Feature", "properties": { "name": "1888 WALTON GROCERY", "type": "Store", "capacity_amt": 1500.0, "capacity_unit_col": "sqft" }, "geometry": { "type": "Point", "coordinates": [ -73.909307, 40.849525 ] } },
{ "type": "Feature", "properties": { "name": "193 RENAISSANCE MARKET", "type": "Store", "capacity_amt": 3000.0, "capacity_unit_col": "sqft" }, "geometry": { "type": "Point", "coordinates": [ -73.91771, 40.832642 ] } },
{ "type": "Feature", "properties": { "name": "19 W BRONX DELI GROCERY", "type": "Store", "capacity_amt": 1800.0, "capacity_unit_col": "sqft" }, "geometry": { "type": "Point", "coordinates": [ -73.904645, 40.858617 ] } },
{ "type": "Feature", "properties": { "name": "2001 GOURMET DELI", "type": "Store", "capacity_amt": 2000.0, "capacity_unit_col": "sqft" }, "geometry": { "type": "Point", "coordinates": [ -73.888837, 40.846387 ] } },
{ "type": "Feature", "properties": { "name": "2013 ABIGAIL DELI GROCE", "type": "Store", "capacity_amt": 1300.0, "capacity_unit_col": "sqft" }, "geometry": { "type": "Point", "coordinates": [ -73.882397, 40.852304 ] } },
{ "type": "Feature", "properties": { "name": "2016 WEST FARMS CONVENI", "type": "Store", "capacity_amt": 1400.0, "capacity_unit_col": "sqft" }, "geometry": { "type": "Point", "coordinates": [ -73.879824, 40.840468 ] } },
{ "type": "Feature", "properties": { "name": "20\/20 CONVENIENCE STORE", "type": "Store", "capacity_amt": 1200.0, "capacity_unit_col": "sqft" }, "geometry": { "type": "Point", "coordinates": [ -73.913634, 40.824121 ] } },
{ "type": "Feature", "properties": { "name": "20\/20 DELI", "type": "Store", "capacity_amt": 1100.0, "capacity_unit_col": "sqft" }, "geometry": { "type": "Point", "coordinates": [ -73.891999, 40.826794 ] } },
{ "type": "Feature", "properties": { "name": "20-20-GOURMET DELI", "type": "Store", "capacity_amt": 1800.0, "capacity_unit_col": "sqft" }, "geometry": { "type": "Point", "coordinates": [ -73.916748, 40.822524 ] } },
{ "type": "Feature", "properties": { "name": "2031 WEBSTER FOOD", "type": "Store", "capacity_amt": 1200.0, "capacity_unit_col": "sqft" }, "geometry": { "type": "Point", "coordinates": [ -73.899058, 40.850841 ] } },
{ "type": "Feature", "properties": { "name": "2034 APPLE GROCERY & PR", "type": "Store", "capacity_amt": 5500.0, "capacity_unit_col": "sqft" }, "geometry": { "type": "Point", "coordinates": [ -73.843502, 40.854057 ] } },
{ "type": "Feature", "properties": { "name": "206 SAMY GOURMET DELI", "type": "Store", "capacity_amt": 1800.0, "capacity_unit_col": "sqft" }, "geometry": { "type": "Point", "coordinates": [ -73.923757, 40.807934 ] } },
{ "type": "Feature", "properties": { "name": "210 SUPERMARKET", "type": "Store", "capacity_amt": 2800.0, "capacity_unit_col": "sqft" }, "geometry": { "type": "Point", "coordinates": [ -73.855455, 40.809961 ] } },
{ "type": "Feature", "properties": { "name": "2152 RAYS CORNER DELI &", "type": "Store", "capacity_amt": 1200.0, "capacity_unit_col": "sqft" }, "geometry": { "type": "Point", "coordinates": [ -73.88289, 40.847548 ] } },
{ "type": "Feature", "properties": { "name": "2220 ONE WAY DELI GROCE", "type": "Store", "capacity_amt": 1200.0, "capacity_unit_col": "sqft" }, "geometry": { "type": "Point", "coordinates": [ -73.8686, 40.858357 ] } },
{ "type": "Feature", "properties": { "name": "2300 DELI", "type": "Store", "capacity_amt": 2000.0, "capacity_unit_col": "sqft" }, "geometry": { "type": "Point", "coordinates": [ -73.884437, 40.852278 ] } },
{ "type": "Feature", "properties": { "name": "2304 FORDHAM HILL FOOD", "type": "Store", "capacity_amt": 1500.0, "capacity_unit_col": "sqft" }, "geometry": { "type": "Point", "coordinates": [ -73.909021, 40.862536 ] } },
{ "type": "Feature", "properties": { "name": "230 JC DELI GROCERY", "type": "Store", "capacity_amt": 1200.0, "capacity_unit_col": "sqft" }, "geometry": { "type": "Point", "coordinates": [ -73.907292, 40.844724 ] } },
{ "type": "Feature", "properties": { "name": "2326 DELI GROCERY", "type": "Store", "capacity_amt": 1155.0, "capacity_unit_col": "sqft" }, "geometry": { "type": "Point", "coordinates": [ -73.899443, 40.857929 ] } },
{ "type": "Feature", "properties": { "name": "233 ST MINI STOP", "type": "Store", "capacity_amt": 2000.0, "capacity_unit_col": "sqft" }, "geometry": { "type": "Point", "coordinates": [ -73.857437, 40.89333 ] } },
{ "type": "Feature", "properties": { "name": "2363 ROSEWOOD GROCERY", "type": "Store", "capacity_amt": 1200.0, "capacity_unit_col": "sqft" }, "geometry": { "type": "Point", "coordinates": [ -73.867162, 40.872845 ] } },
{ "type": "Feature", "properties": { "name": "2374 KING DELI & GROCER", "type": "Store", "capacity_amt": 1200.0, "capacity_unit_col": "sqft" }, "geometry": { "type": "Point", "coordinates": [ -73.902471, 40.860701 ] } },
{ "type": "Feature", "properties": { "name": "242 DELI FOOD", "type": "Store", "capacity_amt": 1200.0, "capacity_unit_col": "sqft" }, "geometry": { "type": "Point", "coordinates": [ -73.849414, 40.90566 ] } },
{ "type": "Feature", "properties": { "name": "2430 DELI & GROCERY", "type": "Store", "capacity_amt": 1600.0, "capacity_unit_col": "sqft" }, "geometry": { "type": "Point", "coordinates": [ -73.852098, 40.842612 ] } },
{ "type": "Feature", "properties": { "name": "250 JB FOOD CENTER", "type": "Store", "capacity_amt": 1200.0, "capacity_unit_col": "sqft" }, "geometry": { "type": "Point", "coordinates": [ -73.875957, 40.879869 ] } },
{ "type": "Feature", "properties": { "name": "250 WILLIS AVE MT&PRDCE", "type": "Store", "capacity_amt": 15000.0, "capacity_unit_col": "sqft" }, "geometry": { "type": "Point", "coordinates": [ -73.922667, 40.809423 ] } },
{ "type": "Feature", "properties": { "name": "251 GROCERY & DELI", "type": "Store", "capacity_amt": 2000.0, "capacity_unit_col": "sqft" }, "geometry": { "type": "Point", "coordinates": [ -73.905009, 40.872782 ] } },
{ "type": "Feature", "properties": { "name": "251 SUNSHINE DELI GROCE", "type": "Store", "capacity_amt": 1800.0, "capacity_unit_col": "sqft" }, "geometry": { "type": "Point", "coordinates": [ -73.906574, 40.879823 ] } },
{ "type": "Feature", "properties": { "name": "2 & 5 LINE DELI GROCERY", "type": "Store", "capacity_amt": 1200.0, "capacity_unit_col": "sqft" }, "geometry": { "type": "Point", "coordinates": [ -73.867637, 40.857549 ] } },
{ "type": "Feature", "properties": { "name": "266 A & F DELI GROCERY", "type": "Store", "capacity_amt": 1500.0, "capacity_unit_col": "sqft" }, "geometry": { "type": "Point", "coordinates": [ -73.924367, 40.815183 ] } },
{ "type": "Feature", "properties": { "name": "2690 GROCERY", "type": "Store", "capacity_amt": 4000.0, "capacity_unit_col": "sqft" }, "geometry": { "type": "Point", "coordinates": [ -73.922524, 40.813513 ] } },
{ "type": "Feature", "properties": { "name": "26 KINGSBRIDGE FARM", "type": "Store", "capacity_amt": 2000.0, "capacity_unit_col": "sqft" }, "geometry": { "type": "Point", "coordinates": [ -73.89882, 40.867744 ] } },
{ "type": "Feature", "properties": { "name": "283 AN GROCERY", "type": "Store", "capacity_amt": 1800.0, "capacity_unit_col": "sqft" }, "geometry": { "type": "Point", "coordinates": [ -73.917932, 40.825408 ] } },
{ "type": "Feature", "properties": { "name": "2958 DAY & NIGHT DELI G", "type": "Store", "capacity_amt": 1100.0, "capacity_unit_col": "sqft" }, "geometry": { "type": "Point", "coordinates": [ -73.867261, 40.869535 ] } },
{ "type": "Feature", "properties": { "name": "2 BROTHERS FAMOUS DELI", "type": "Store", "capacity_amt": 1200.0, "capacity_unit_col": "sqft" }, "geometry": { "type": "Point", "coordinates": [ -73.867371, 40.866344 ] } },
{ "type": "Feature", "properties": { "name": "3161 NORWOOD DELI", "type": "Store", "capacity_amt": 1200.0, "capacity_unit_col": "sqft" }, "geometry": { "type": "Point", "coordinates": [ -73.879483, 40.875136 ] } },
{ "type": "Feature", "properties": { "name": "323 GUN HILL DELI", "type": "Store", "capacity_amt": 1200.0, "capacity_unit_col": "sqft" }, "geometry": { "type": "Point", "coordinates": [ -73.873845, 40.878947 ] } },
{ "type": "Feature", "properties": { "name": "332 GROCERY STORE", "type": "Store", "capacity_amt": 1500.0, "capacity_unit_col": "sqft" }, "geometry": { "type": "Point", "coordinates": [ -73.916014, 40.809056 ] } },
{ "type": "Feature", "properties": { "name": "3770 FISH MARKET", "type": "Store", "capacity_amt": 1500.0, "capacity_unit_col": "sqft" }, "geometry": { "type": "Point", "coordinates": [ -73.8629, 40.883455 ] } },
{ "type": "Feature", "properties": { "name": "37 DELI GROCERY 06\/01\/1", "type": "Store", "capacity_amt": 1800.0, "capacity_unit_col": "sqft" }, "geometry": { "type": "Point", "coordinates": [ -73.905352, 40.858864 ] } },
{ "type": "Feature", "properties": { "name": "383 CAPELLAN GROCERY", "type": "Store", "capacity_amt": 1200.0, "capacity_unit_col": "sqft" }, "geometry": { "type": "Point", "coordinates": [ -73.923331, 40.809293 ] } },
{ "type": "Feature", "properties": { "name": "3 IN ONE MARKET", "type": "Store", "capacity_amt": 1500.0, "capacity_unit_col": "sqft" }, "geometry": { "type": "Point", "coordinates": [ -73.904877, 40.858692 ] } },
{ "type": "Feature", "properties": { "name": "3RD AVE FISH & DELI", "type": "Store", "capacity_amt": 1800.0, "capacity_unit_col": "sqft" }, "geometry": { "type": "Point", "coordinates": [ -73.920346, 40.814636 ] } },
{ "type": "Feature", "properties": { "name": "3RD AVE STOP SHOP", "type": "Store", "capacity_amt": 4000.0, "capacity_unit_col": "sqft" }, "geometry": { "type": "Point", "coordinates": [ -73.902489, 40.836493 ] } },
{ "type": "Feature", "properties": { "name": "4185 ENTERPRISE", "type": "Store", "capacity_amt": 1500.0, "capacity_unit_col": "sqft" }, "geometry": { "type": "Point", "coordinates": [ -73.857549, 40.89312 ] } },
{ "type": "Feature", "properties": { "name": "41 FANTASY FOOD CENTER", "type": "Store", "capacity_amt": 1200.0, "capacity_unit_col": "sqft" }, "geometry": { "type": "Point", "coordinates": [ -73.922248, 40.852143 ] } },
{ "type": "Feature", "properties": { "name": "422 WCHESTER FRT VEG&GY", "type": "Store", "capacity_amt": 1100.0, "capacity_unit_col": "sqft" }, "geometry": { "type": "Point", "coordinates": [ -73.898218, 40.817509 ] } },
{ "type": "Feature", "properties": { "name": "430 FOOD", "type": "Store", "capacity_amt": 1500.0, "capacity_unit_col": "sqft" }, "geometry": { "type": "Point", "coordinates": [ -73.921547, 40.808538 ] } },
{ "type": "Feature", "properties": { "name": "450 LOS SOCIO DELI GROC", "type": "Store", "capacity_amt": 1500.0, "capacity_unit_col": "sqft" }, "geometry": { "type": "Point", "coordinates": [ -73.912536, 40.823062 ] } },
{ "type": "Feature", "properties": { "name": "4577 MATILDA DELI & GRO", "type": "Store", "capacity_amt": 1300.0, "capacity_unit_col": "sqft" }, "geometry": { "type": "Point", "coordinates": [ -73.853368, 40.902727 ] } },
{ "type": "Feature", "properties": { "name": "45 RICHMAN PLAZA DELI G", "type": "Store", "capacity_amt": 1800.0, "capacity_unit_col": "sqft" }, "geometry": { "type": "Point", "coordinates": [ -73.922168, 40.85223 ] } },
{ "type": "Feature", "properties": { "name": "469 EP DELI GROCERY", "type": "Store", "capacity_amt": 1100.0, "capacity_unit_col": "sqft" }, "geometry": { "type": "Point", "coordinates": [ -73.91605, 40.813083 ] } },
{ "type": "Feature", "properties": { "name": "50 STAR DELI GROCERY MA", "type": "Store", "capacity_amt": 1500.0, "capacity_unit_col": "sqft" }, "geometry": { "type": "Point", "coordinates": [ -73.903273, 40.822404 ] } },
{ "type": "Feature", "properties": { "name": "520 EAST GROCERY", "type": "Store", "capacity_amt": 1200.0, "capacity_unit_col": "sqft" }, "geometry": { "type": "Point", "coordinates": [ -73.915258, 40.814413 ] } },
{ "type": "Feature", "properties": { "name": "543 NORTH DELI GROCERY", "type": "Store", "capacity_amt": 2000.0, "capacity_unit_col": "sqft" }, "geometry": { "type": "Point", "coordinates": [ -73.903933, 40.812184 ] } },
{ "type": "Feature", "properties": { "name": "545 E 137TH ST GROCERY", "type": "Store", "capacity_amt": 1200.0, "capacity_unit_col": "sqft" }, "geometry": { "type": "Point", "coordinates": [ -73.918417, 40.806316 ] } },
{ "type": "Feature", "properties": { "name": "550 EAST 139TH STREET", "type": "Store", "capacity_amt": 1200.0, "capacity_unit_col": "sqft" }, "geometry": { "type": "Point", "coordinates": [ -73.917287, 40.807623 ] } },
{ "type": "Feature", "properties": { "name": "555 ALCIBIADES DELI", "type": "Store", "capacity_amt": 1500.0, "capacity_unit_col": "sqft" }, "geometry": { "type": "Point", "coordinates": [ -73.904056, 40.83242 ] } },
{ "type": "Feature", "properties": { "name": "562 MORRIS 99 CENTS PLU", "type": "Store", "capacity_amt": 1300.0, "capacity_unit_col": "sqft" }, "geometry": { "type": "Point", "coordinates": [ -73.922518, 40.817922 ] } },
{ "type": "Feature", "properties": { "name": "5706 MOSHOLU AVE DELI", "type": "Store", "capacity_amt": 1500.0, "capacity_unit_col": "sqft" }, "geometry": { "type": "Point", "coordinates": [ -73.900237, 40.905539 ] } },
{ "type": "Feature", "properties": { "name": "571 EXPRESS DELI GROCER", "type": "Store", "capacity_amt": 1200.0, "capacity_unit_col": "sqft" }, "geometry": { "type": "Point", "coordinates": [ -73.916613, 40.807339 ] } },
{ "type": "Feature", "properties": { "name": "58 BURNSIDE FOOD", "type": "Store", "capacity_amt": 2700.0, "capacity_unit_col": "sqft" }, "geometry": { "type": "Point", "coordinates": [ -73.909838, 40.854247 ] } },
{ "type": "Feature", "properties": { "name": "5D HOLDINGS", "type": "Store", "capacity_amt": 4000.0, "capacity_unit_col": "sqft" }, "geometry": { "type": "Point", "coordinates": [ -73.900516, 40.840661 ] } },
{ "type": "Feature", "properties": { "name": "5 EAST TOBACCO", "type": "Store", "capacity_amt": 1200.0, "capacity_unit_col": "sqft" }, "geometry": { "type": "Point", "coordinates": [ -73.907287, 40.85379 ] } },
{ "type": "Feature", "properties": { "name": "630 DELI GROCERY CORP", "type": "Store", "capacity_amt": 1200.0, "capacity_unit_col": "sqft" }, "geometry": { "type": "Point", "coordinates": [ -73.927464, 40.82116 ] } },
{ "type": "Feature", "properties": { "name": "635 GOURMET EXPRESS DEL", "type": "Store", "capacity_amt": 1200.0, "capacity_unit_col": "sqft" }, "geometry": { "type": "Point", "coordinates": [ -73.901241, 40.831479 ] } },
{ "type": "Feature", "properties": { "name": "640 AS FOOD", "type": "Store", "capacity_amt": 3000.0, "capacity_unit_col": "sqft" }, "geometry": { "type": "Point", "coordinates": [ -73.864217, 40.837803 ] } },
{ "type": "Feature", "properties": { "name": "654 GREEN MART", "type": "Store", "capacity_amt": 3000.0, "capacity_unit_col": "sqft" }, "geometry": { "type": "Point", "coordinates": [ -73.908645, 40.816095 ] } },
{ "type": "Feature", "properties": { "name": "681 DELI GROCERY STORE", "type": "Store", "capacity_amt": 1200.0, "capacity_unit_col": "sqft" }, "geometry": { "type": "Point", "coordinates": [ -73.88524, 40.85441 ] } },
{ "type": "Feature", "properties": { "name": "7\/10 DELI MARKET", "type": "Store", "capacity_amt": 1800.0, "capacity_unit_col": "sqft" }, "geometry": { "type": "Point", "coordinates": [ -73.924524, 40.828245 ] } },
{ "type": "Feature", "properties": { "name": "732 COURTLANDT DELI", "type": "Store", "capacity_amt": 1800.0, "capacity_unit_col": "sqft" }, "geometry": { "type": "Point", "coordinates": [ -73.917449, 40.821198 ] } },
{ "type": "Feature", "properties": { "name": "73 HN GROCERY", "type": "Store", "capacity_amt": 1800.0, "capacity_unit_col": "sqft" }, "geometry": { "type": "Point", "coordinates": [ -73.895668, 40.866717 ] } },
{ "type": "Feature", "properties": { "name": "775 MENA GROCERY", "type": "Store", "capacity_amt": 1200.0, "capacity_unit_col": "sqft" }, "geometry": { "type": "Point", "coordinates": [ -73.864542, 40.854448 ] } },
{ "type": "Feature", "properties": { "name": "777 ELTON GROCERY", "type": "Store", "capacity_amt": 2000.0, "capacity_unit_col": "sqft" }, "geometry": { "type": "Point", "coordinates": [ -73.913468, 40.821304 ] } },
{ "type": "Feature", "properties": { "name": "777 GOURMET DELI", "type": "Store", "capacity_amt": 1100.0, "capacity_unit_col": "sqft" }, "geometry": { "type": "Point", "coordinates": [ -73.84545, 40.842563 ] } },
{ "type": "Feature", "properties": { "name": "777 SEAFOOD PLAZA", "type": "Store", "capacity_amt": 2500.0, "capacity_unit_col": "sqft" }, "geometry": { "type": "Point", "coordinates": [ -73.917201, 40.807223 ] } },
{ "type": "Feature", "properties": { "name": "7-ELEVEN #39045 A", "type": "Store", "capacity_amt": 1100.0, "capacity_unit_col": "sqft" }, "geometry": { "type": "Point", "coordinates": [ -73.89587, 40.812098 ] } },
{ "type": "Feature", "properties": { "name": "7 ELEVEN 39084A", "type": "Store", "capacity_amt": 2000.0, "capacity_unit_col": "sqft" }, "geometry": { "type": "Point", "coordinates": [ -73.926996, 40.819405 ] } },
{ "type": "Feature", "properties": { "name": "7 ELEVEN DELI", "type": "Store", "capacity_amt": 1200.0, "capacity_unit_col": "sqft" }, "geometry": { "type": "Point", "coordinates": [ -73.8682, 40.865415 ] } },
{ "type": "Feature", "properties": { "name": "7-ELEVEN STORE 32116C", "type": "Store", "capacity_amt": 3000.0, "capacity_unit_col": "sqft" }, "geometry": { "type": "Point", "coordinates": [ -73.837162, 40.842703 ] } },
{ "type": "Feature", "properties": { "name": "7 ELEVEN STORE 32201B", "type": "Store", "capacity_amt": 2000.0, "capacity_unit_col": "sqft" }, "geometry": { "type": "Point", "coordinates": [ -73.826643, 40.831148 ] } },
{ "type": "Feature", "properties": { "name": "7 ELEVEN STORE #35887H", "type": "Store", "capacity_amt": 1200.0, "capacity_unit_col": "sqft" }, "geometry": { "type": "Point", "coordinates": [ -73.916688, 40.849488 ] } },
{ "type": "Feature", "properties": { "name": "7 ELEVEN STORE # 35889A", "type": "Store", "capacity_amt": 1700.0, "capacity_unit_col": "sqft" }, "geometry": { "type": "Point", "coordinates": [ -73.867664, 40.856363 ] } },
{ "type": "Feature", "properties": { "name": "7-ELEVEN STORE 39365A", "type": "Store", "capacity_amt": 1200.0, "capacity_unit_col": "sqft" }, "geometry": { "type": "Point", "coordinates": [ -73.885444, 40.858523 ] } },
{ "type": "Feature", "properties": { "name": "7-ELEVEN STORE 39549A", "type": "Store", "capacity_amt": 2400.0, "capacity_unit_col": "sqft" }, "geometry": { "type": "Point", "coordinates": [ -73.901621, 40.846642 ] } },
{ "type": "Feature", "properties": { "name": "7 FLOOR DELI", "type": "Store", "capacity_amt": 2000.0, "capacity_unit_col": "sqft" }, "geometry": { "type": "Point", "coordinates": [ -73.899589, 40.879072 ] } },
{ "type": "Feature", "properties": { "name": "833 DISCOUNT", "type": "Store", "capacity_amt": 2000.0, "capacity_unit_col": "sqft" }, "geometry": { "type": "Point", "coordinates": [ -73.905208, 40.812434 ] } },
{ "type": "Feature", "properties": { "name": "843 MASTER DELI & GROCE", "type": "Store", "capacity_amt": 1400.0, "capacity_unit_col": "sqft" }, "geometry": { "type": "Point", "coordinates": [ -73.867201, 40.822328 ] } },
{ "type": "Feature", "properties": { "name": "857 COMMUNITY DELI & GR", "type": "Store", "capacity_amt": 1200.0, "capacity_unit_col": "sqft" }, "geometry": { "type": "Point", "coordinates": [ -73.847691, 40.902199 ] } },
{ "type": "Feature", "properties": { "name": "99 C DISCOUNT PLUS", "type": "Store", "capacity_amt": 2000.0, "capacity_unit_col": "sqft" }, "geometry": { "type": "Point", "coordinates": [ -73.906334, 40.815425 ] } },
{ "type": "Feature", "properties": { "name": "99 CENTS AMIGO", "type": "Store", "capacity_amt": 1300.0, "capacity_unit_col": "sqft" }, "geometry": { "type": "Point", "coordinates": [ -73.89653, 40.816014 ] } },
{ "type": "Feature", "properties": { "name": "99 CENTS BEST", "type": "Store", "capacity_amt": 1300.0, "capacity_unit_col": "sqft" }, "geometry": { "type": "Point", "coordinates": [ -73.895796, 40.855932 ] } },
{ "type": "Feature", "properties": { "name": "99 CENTS DEALS", "type": "Store", "capacity_amt": 4800.0, "capacity_unit_col": "sqft" }, "geometry": { "type": "Point", "coordinates": [ -73.903482, 40.862745 ] } },
{ "type": "Feature", "properties": { "name": "99 CENTS DREAM", "type": "Store", "capacity_amt": 3500.0, "capacity_unit_col": "sqft" }, "geometry": { "type": "Point", "coordinates": [ -73.832037, 40.884595 ] } },
{ "type": "Feature", "properties": { "name": "99 CENTS FACTORY", "type": "Store", "capacity_amt": 5000.0, "capacity_unit_col": "sqft" }, "geometry": { "type": "Point", "coordinates": [ -73.92235, 40.817232 ] } },
{ "type": "Feature", "properties": { "name": "99 CENTS PAPA", "type": "Store", "capacity_amt": 4000.0, "capacity_unit_col": "sqft" }, "geometry": { "type": "Point", "coordinates": [ -73.914462, 40.814774 ] } },
{ "type": "Feature", "properties": { "name": "99 CENTS PLUS SUPERSTOR", "type": "Store", "capacity_amt": 2000.0, "capacity_unit_col": "sqft" }, "geometry": { "type": "Point", "coordinates": [ -73.858131, 40.892054 ] } },
{ "type": "Feature", "properties": { "name": "99 CENTS RUSH", "type": "Store", "capacity_amt": 2500.0, "capacity_unit_col": "sqft" }, "geometry": { "type": "Point", "coordinates": [ -73.881775, 40.82835 ] } },
{ "type": "Feature", "properties": { "name": "99 CENTS STORE", "type": "Store", "capacity_amt": 3000.0, "capacity_unit_col": "sqft" }, "geometry": { "type": "Point", "coordinates": [ -73.904228, 40.848969 ] } },
{ "type": "Feature", "properties": { "name": "99 CENTS TEAM", "type": "Store", "capacity_amt": 1100.0, "capacity_unit_col": "sqft" }, "geometry": { "type": "Point", "coordinates": [ -73.889214, 40.818813 ] } },
{ "type": "Feature", "properties": { "name": "99 CENTS TOP GRADE", "type": "Store", "capacity_amt": 3200.0, "capacity_unit_col": "sqft" }, "geometry": { "type": "Point", "coordinates": [ -73.859529, 40.824112 ] } },
{ "type": "Feature", "properties": { "name": "99 CENTS USA", "type": "Store", "capacity_amt": 2000.0, "capacity_unit_col": "sqft" }, "geometry": { "type": "Point", "coordinates": [ -73.913034, 40.82018 ] } },
{ "type": "Feature", "properties": { "name": "99 CENTS USA OR MORE", "type": "Store", "capacity_amt": 2500.0, "capacity_unit_col": "sqft" }, "geometry": { "type": "Point", "coordinates": [ -73.903465, 40.880597 ] } },
{ "type": "Feature", "properties": { "name": "99 CENTS VALUE", "type": "Store", "capacity_amt": 2000.0, "capacity_unit_col": "sqft" }, "geometry": { "type": "Point", "coordinates": [ -73.908605, 40.82429 ] } },
{ "type": "Feature", "properties": { "name": "99C OR MORE", "type": "Store", "capacity_amt": 6500.0, "capacity_unit_col": "sqft" }, "geometry": { "type": "Point", "coordinates": [ -73.916922, 40.841285 ] } },
{ "type": "Feature", "properties": { "name": "99C U S 1", "type": "Store", "capacity_amt": 3000.0, "capacity_unit_col": "sqft" }, "geometry": { "type": "Point", "coordinates": [ -73.891361, 40.820982 ] } },
{ "type": "Feature", "properties": { "name": "99 GRANT", "type": "Store", "capacity_amt": 2000.0, "capacity_unit_col": "sqft" }, "geometry": { "type": "Point", "coordinates": [ -73.915403, 40.833719 ] } },
{ "type": "Feature", "properties": { "name": "A1 FOOD DISTRIBUTOR", "type": "Store", "capacity_amt": 8000.0, "capacity_unit_col": "sqft" }, "geometry": { "type": "Point", "coordinates": [ -73.891412, 40.813754 ] } },
{ "type": "Feature", "properties": { "name": "A1 GROCERY STOP", "type": "Store", "capacity_amt": 1200.0, "capacity_unit_col": "sqft" }, "geometry": { "type": "Point", "coordinates": [ -73.835131, 40.838222 ] } },
{ "type": "Feature", "properties": { "name": "AAAS", "type": "Store", "capacity_amt": 1500.0, "capacity_unit_col": "sqft" }, "geometry": { "type": "Point", "coordinates": [ -73.916933, 40.807614 ] } },
{ "type": "Feature", "properties": { "name": "AAA WHOLESALE DISTRIBUT", "type": "Store", "capacity_amt": 14000.0, "capacity_unit_col": "sqft" }, "geometry": { "type": "Point", "coordinates": [ -73.883415, 40.827022 ] } },
{ "type": "Feature", "properties": { "name": "A&A EXPRESS DELI&GRCY", "type": "Store", "capacity_amt": 1100.0, "capacity_unit_col": "sqft" }, "geometry": { "type": "Point", "coordinates": [ -73.830433, 40.849357 ] } },
{ "type": "Feature", "properties": { "name": "A & A GROCERY & DELI", "type": "Store", "capacity_amt": 2400.0, "capacity_unit_col": "sqft" }, "geometry": { "type": "Point", "coordinates": [ -73.922243, 40.818541 ] } },
{ "type": "Feature", "properties": { "name": "A&A HUTCH DELI", "type": "Store", "capacity_amt": 1200.0, "capacity_unit_col": "sqft" }, "geometry": { "type": "Point", "coordinates": [ -73.83403, 40.849357 ] } },
{ "type": "Feature", "properties": { "name": "A A SUPER DELI & GROCER", "type": "Store", "capacity_amt": 1200.0, "capacity_unit_col": "sqft" }, "geometry": { "type": "Point", "coordinates": [ -73.879478, 40.834164 ] } },
{ "type": "Feature", "properties": { "name": "A&A VARIETY DOUBLE DISC", "type": "Store", "capacity_amt": 4000.0, "capacity_unit_col": "sqft" }, "geometry": { "type": "Point", "coordinates": [ -73.85537, 40.83603 ] } },
{ "type": "Feature", "properties": { "name": "ABC 99 CENT NYC", "type": "Store", "capacity_amt": 3000.0, "capacity_unit_col": "sqft" }, "geometry": { "type": "Point", "coordinates": [ -73.923643, 40.809424 ] } },
{ "type": "Feature", "properties": { "name": "AB INTERNATIONAL MARKET", "type": "Store", "capacity_amt": 2800.0, "capacity_unit_col": "sqft" }, "geometry": { "type": "Point", "coordinates": [ -73.904387, 40.857542 ] } },
{ "type": "Feature", "properties": { "name": "ABREUS GROCERY", "type": "Store", "capacity_amt": 1200.0, "capacity_unit_col": "sqft" }, "geometry": { "type": "Point", "coordinates": [ -73.899591, 40.830703 ] } },
{ "type": "Feature", "properties": { "name": "A&C GOURMET", "type": "Store", "capacity_amt": 1800.0, "capacity_unit_col": "sqft" }, "geometry": { "type": "Point", "coordinates": [ -73.921242, 40.815392 ] } },
{ "type": "Feature", "properties": { "name": "ADDEO BAKERS", "type": "Store", "capacity_amt": 4000.0, "capacity_unit_col": "sqft" }, "geometry": { "type": "Point", "coordinates": [ -73.88744, 40.854558 ] } },
{ "type": "Feature", "properties": { "name": "ADIS PORK STORE", "type": "Store", "capacity_amt": 3200.0, "capacity_unit_col": "sqft" }, "geometry": { "type": "Point", "coordinates": [ -73.861081, 40.886753 ] } },
{ "type": "Feature", "properties": { "name": "ADOLFO MEAT MARKET", "type": "Store", "capacity_amt": 1500.0, "capacity_unit_col": "sqft" }, "geometry": { "type": "Point", "coordinates": [ -73.915145, 40.839143 ] } },
{ "type": "Feature", "properties": { "name": "ADUM AFRICAN MARKET", "type": "Store", "capacity_amt": 4000.0, "capacity_unit_col": "sqft" }, "geometry": { "type": "Point", "coordinates": [ -73.914396, 40.833399 ] } },
{ "type": "Feature", "properties": { "name": "AFRICAN AMERICAN & CARI", "type": "Store", "capacity_amt": 1200.0, "capacity_unit_col": "sqft" }, "geometry": { "type": "Point", "coordinates": [ -73.910973, 40.837667 ] } },
{ "type": "Feature", "properties": { "name": "AFRICA UNITED FOOD", "type": "Store", "capacity_amt": 3200.0, "capacity_unit_col": "sqft" }, "geometry": { "type": "Point", "coordinates": [ -73.910988, 40.829781 ] } },
{ "type": "Feature", "properties": { "name": "AF RIVERDALE MEAT MARKE", "type": "Store", "capacity_amt": 1600.0, "capacity_unit_col": "sqft" }, "geometry": { "type": "Point", "coordinates": [ -73.904491, 40.879151 ] } },
{ "type": "Feature", "properties": { "name": "AFTAB GROCERY & HALAL M", "type": "Store", "capacity_amt": 1600.0, "capacity_unit_col": "sqft" }, "geometry": { "type": "Point", "coordinates": [ -73.861775, 40.83084 ] } },
{ "type": "Feature", "properties": { "name": "AGBANDJALA RABIETOU", "type": "Store", "capacity_amt": 1200.0, "capacity_unit_col": "sqft" }, "geometry": { "type": "Point", "coordinates": [ -73.891992, 40.827644 ] } },
{ "type": "Feature", "properties": { "name": "A&G DELI GROCERY", "type": "Store", "capacity_amt": 1600.0, "capacity_unit_col": "sqft" }, "geometry": { "type": "Point", "coordinates": [ -73.893887, 40.820724 ] } },
{ "type": "Feature", "properties": { "name": "A & G DELI GROCERY III", "type": "Store", "capacity_amt": 1200.0, "capacity_unit_col": "sqft" }, "geometry": { "type": "Point", "coordinates": [ -73.895907, 40.820653 ] } },
{ "type": "Feature", "properties": { "name": "AJB DELI GROCERY", "type": "Store", "capacity_amt": 1200.0, "capacity_unit_col": "sqft" }, "geometry": { "type": "Point", "coordinates": [ -73.887474, 40.814632 ] } },
{ "type": "Feature", "properties": { "name": "A L A DELI GROCERY", "type": "Store", "capacity_amt": 1500.0, "capacity_unit_col": "sqft" }, "geometry": { "type": "Point", "coordinates": [ -73.90403, 40.82805 ] } },
{ "type": "Feature", "properties": { "name": "AL-AGSA HALAL MEAT SPMK", "type": "Store", "capacity_amt": 8000.0, "capacity_unit_col": "sqft" }, "geometry": { "type": "Point", "coordinates": [ -73.854729, 40.836092 ] } },
{ "type": "Feature", "properties": { "name": "ALAUDDIN SUPERMARKET BR", "type": "Store", "capacity_amt": 2800.0, "capacity_unit_col": "sqft" }, "geometry": { "type": "Point", "coordinates": [ -73.845626, 40.839226 ] } },
{ "type": "Feature", "properties": { "name": "ALEX FOOD II", "type": "Store", "capacity_amt": 2400.0, "capacity_unit_col": "sqft" }, "geometry": { "type": "Point", "coordinates": [ -73.919729, 40.84755 ] } },
{ "type": "Feature", "properties": { "name": "ALEX MINI MARKET", "type": "Store", "capacity_amt": 1100.0, "capacity_unit_col": "sqft" }, "geometry": { "type": "Point", "coordinates": [ -73.867342, 40.867512 ] } },
{ "type": "Feature", "properties": { "name": "ALIANA DELI GROCERY", "type": "Store", "capacity_amt": 1300.0, "capacity_unit_col": "sqft" }, "geometry": { "type": "Point", "coordinates": [ -73.852038, 40.904195 ] } },
{ "type": "Feature", "properties": { "name": "ALI GOURMET DELI", "type": "Store", "capacity_amt": 1200.0, "capacity_unit_col": "sqft" }, "geometry": { "type": "Point", "coordinates": [ -73.914224, 40.808236 ] } },
{ "type": "Feature", "properties": { "name": "ALI KINGS DELI GRCY", "type": "Store", "capacity_amt": 1200.0, "capacity_unit_col": "sqft" }, "geometry": { "type": "Point", "coordinates": [ -73.905028, 40.827176 ] } },
{ "type": "Feature", "properties": { "name": "ALLERTON FISH MARKET", "type": "Store", "capacity_amt": 1500.0, "capacity_unit_col": "sqft" }, "geometry": { "type": "Point", "coordinates": [ -73.866548, 40.865447 ] } },
{ "type": "Feature", "properties": { "name": "ALLERTON MINI MARKET", "type": "Store", "capacity_amt": 1500.0, "capacity_unit_col": "sqft" }, "geometry": { "type": "Point", "coordinates": [ -73.864863, 40.865481 ] } },
{ "type": "Feature", "properties": { "name": "ALNUMI DELI", "type": "Store", "capacity_amt": 1200.0, "capacity_unit_col": "sqft" }, "geometry": { "type": "Point", "coordinates": [ -73.91612, 40.833821 ] } },
{ "type": "Feature", "properties": { "name": "ALTAGRACIA GROCERY", "type": "Store", "capacity_amt": 1600.0, "capacity_unit_col": "sqft" }, "geometry": { "type": "Point", "coordinates": [ -73.911283, 40.848566 ] } },
{ "type": "Feature", "properties": { "name": "AM GOURMET DELI", "type": "Store", "capacity_amt": 1800.0, "capacity_unit_col": "sqft" }, "geometry": { "type": "Point", "coordinates": [ -73.855408, 40.855517 ] } },
{ "type": "Feature", "properties": { "name": "AMIGO 99 CENTS - WILLIS", "type": "Store", "capacity_amt": 1500.0, "capacity_unit_col": "sqft" }, "geometry": { "type": "Point", "coordinates": [ -73.921149, 40.810889 ] } },
{ "type": "Feature", "properties": { "name": "AMIGO DISCT& STATIONARY", "type": "Store", "capacity_amt": 1200.0, "capacity_unit_col": "sqft" }, "geometry": { "type": "Point", "coordinates": [ -73.901547, 40.819864 ] } },
{ "type": "Feature", "properties": { "name": "AMOR SUPERMARKET", "type": "Store", "capacity_amt": 2400.0, "capacity_unit_col": "sqft" }, "geometry": { "type": "Point", "coordinates": [ -73.905262, 40.858831 ] } },
{ "type": "Feature", "properties": { "name": "ANA DELI GROCERY", "type": "Store", "capacity_amt": 1800.0, "capacity_unit_col": "sqft" }, "geometry": { "type": "Point", "coordinates": [ -73.929221, 40.833226 ] } },
{ "type": "Feature", "properties": { "name": "ANALIA DELI GROCERY", "type": "Store", "capacity_amt": 1500.0, "capacity_unit_col": "sqft" }, "geometry": { "type": "Point", "coordinates": [ -73.875931, 40.826392 ] } },
{ "type": "Feature", "properties": { "name": "ANDREAS DELI GROCERY", "type": "Store", "capacity_amt": 1200.0, "capacity_unit_col": "sqft" }, "geometry": { "type": "Point", "coordinates": [ -73.888465, 40.828542 ] } },
{ "type": "Feature", "properties": { "name": "ANLY & MADALY DELI-GROC", "type": "Store", "capacity_amt": 1500.0, "capacity_unit_col": "sqft" }, "geometry": { "type": "Point", "coordinates": [ -73.90979, 40.836806 ] } },
{ "type": "Feature", "properties": { "name": "ANN CLAIRS SALUMERIA", "type": "Store", "capacity_amt": 1200.0, "capacity_unit_col": "sqft" }, "geometry": { "type": "Point", "coordinates": [ -73.851806, 40.850107 ] } },
{ "type": "Feature", "properties": { "name": "ANN'S COFFEE SHOP & CON", "type": "Store", "capacity_amt": 1100.0, "capacity_unit_col": "sqft" }, "geometry": { "type": "Point", "coordinates": [ -73.914395, 40.833399 ] } },
{ "type": "Feature", "properties": { "name": "ANTHONYS FAMOUS GRMT DL", "type": "Store", "capacity_amt": 1400.0, "capacity_unit_col": "sqft" }, "geometry": { "type": "Point", "coordinates": [ -73.878029, 40.880861 ] } },
{ "type": "Feature", "properties": { "name": "ANTILLANA FRESH MEAT MA", "type": "Store", "capacity_amt": 3000.0, "capacity_unit_col": "sqft" }, "geometry": { "type": "Point", "coordinates": [ -73.89302, 40.824099 ] } },
{ "type": "Feature", "properties": { "name": "ANTILLANA & METRO SUPER", "type": "Store", "capacity_amt": 8500.0, "capacity_unit_col": "sqft" }, "geometry": { "type": "Point", "coordinates": [ -73.918629, 40.838896 ] } },
{ "type": "Feature", "properties": { "name": "ANTILLANA SUPERMARKET", "type": "Store", "capacity_amt": 3900.0, "capacity_unit_col": "sqft" }, "geometry": { "type": "Point", "coordinates": [ -73.90662, 40.862799 ] } },
{ "type": "Feature", "properties": { "name": "AOS DISCOUNT", "type": "Store", "capacity_amt": 1400.0, "capacity_unit_col": "sqft" }, "geometry": { "type": "Point", "coordinates": [ -73.875612, 40.879698 ] } },
{ "type": "Feature", "properties": { "name": "APPLE VALLEY SUPERMARKE", "type": "Store", "capacity_amt": 1100.0, "capacity_unit_col": "sqft" }, "geometry": { "type": "Point", "coordinates": [ -73.893155, 40.865486 ] } },
{ "type": "Feature", "properties": { "name": "AQUI ME QUEDO GROCERY", "type": "Store", "capacity_amt": 1800.0, "capacity_unit_col": "sqft" }, "geometry": { "type": "Point", "coordinates": [ -73.922495, 40.831682 ] } },
{ "type": "Feature", "properties": { "name": "AR DELI GROCERY", "type": "Store", "capacity_amt": 1200.0, "capacity_unit_col": "sqft" }, "geometry": { "type": "Point", "coordinates": [ -73.905355, 40.853429 ] } },
{ "type": "Feature", "properties": { "name": "AS&O GROCERY DELI", "type": "Store", "capacity_amt": 1500.0, "capacity_unit_col": "sqft" }, "geometry": { "type": "Point", "coordinates": [ -73.867459, 40.863457 ] } },
{ "type": "Feature", "properties": { "name": "ASSOCIATED", "type": "Store", "capacity_amt": 8000.0, "capacity_unit_col": "sqft" }, "geometry": { "type": "Point", "coordinates": [ -73.923063, 40.83567 ] } },
{ "type": "Feature", "properties": { "name": "ASSOCIATED", "type": "Store", "capacity_amt": 8000.0, "capacity_unit_col": "sqft" }, "geometry": { "type": "Point", "coordinates": [ -73.914679, 40.838962 ] } },
{ "type": "Feature", "properties": { "name": "ASSOCIATED", "type": "Store", "capacity_amt": 17500.0, "capacity_unit_col": "sqft" }, "geometry": { "type": "Point", "coordinates": [ -73.892421, 40.831768 ] } },
{ "type": "Feature", "properties": { "name": "ASSOCIATED", "type": "Store", "capacity_amt": 15000.0, "capacity_unit_col": "sqft" }, "geometry": { "type": "Point", "coordinates": [ -73.91002, 40.831484 ] } },
{ "type": "Feature", "properties": { "name": "ASSOCIATED", "type": "Store", "capacity_amt": 20000.0, "capacity_unit_col": "sqft" }, "geometry": { "type": "Point", "coordinates": [ -73.922277, 40.852115 ] } },
{ "type": "Feature", "properties": { "name": "ASSOCIATED 867", "type": "Store", "capacity_amt": 8000.0, "capacity_unit_col": "sqft" }, "geometry": { "type": "Point", "coordinates": [ -73.876095, 40.829061 ] } },
{ "type": "Feature", "properties": { "name": "ASSOCIATED SUPERMARKET", "type": "Store", "capacity_amt": 14000.0, "capacity_unit_col": "sqft" }, "geometry": { "type": "Point", "coordinates": [ -73.905253, 40.821452 ] } },
{ "type": "Feature", "properties": { "name": "ASSOCIATED SUPERMARKET", "type": "Store", "capacity_amt": 30000.0, "capacity_unit_col": "sqft" }, "geometry": { "type": "Point", "coordinates": [ -73.865167, 40.816697 ] } },
{ "type": "Feature", "properties": { "name": "ASSOCIATED SUPERMARKET", "type": "Store", "capacity_amt": 15000.0, "capacity_unit_col": "sqft" }, "geometry": { "type": "Point", "coordinates": [ -73.846776, 40.888164 ] } },
{ "type": "Feature", "properties": { "name": "ASSOCIATED SUPERMARKET", "type": "Store", "capacity_amt": 2500.0, "capacity_unit_col": "sqft" }, "geometry": { "type": "Point", "coordinates": [ -73.902805, 40.868928 ] } },
{ "type": "Feature", "properties": { "name": "ASSOCIATED SUPERMARKET", "type": "Store", "capacity_amt": 15000.0, "capacity_unit_col": "sqft" }, "geometry": { "type": "Point", "coordinates": [ -73.916449, 40.833936 ] } },
{ "type": "Feature", "properties": { "name": "ASSOCIATE SUPERMARKET", "type": "Store", "capacity_amt": 14000.0, "capacity_unit_col": "sqft" }, "geometry": { "type": "Point", "coordinates": [ -73.906378, 40.829897 ] } },
{ "type": "Feature", "properties": { "name": "A TO Z GROCERY & DELI", "type": "Store", "capacity_amt": 1200.0, "capacity_unit_col": "sqft" }, "geometry": { "type": "Point", "coordinates": [ -73.830007, 40.842059 ] } },
{ "type": "Feature", "properties": { "name": "A TO Z VALUE STORE", "type": "Store", "capacity_amt": 1500.0, "capacity_unit_col": "sqft" }, "geometry": { "type": "Point", "coordinates": [ -73.89005, 40.869608 ] } },
{ "type": "Feature", "properties": { "name": "AVOCADO DELI", "type": "Store", "capacity_amt": 1100.0, "capacity_unit_col": "sqft" }, "geometry": { "type": "Point", "coordinates": [ -73.86667, 40.831798 ] } },
{ "type": "Feature", "properties": { "name": "A WORLD OF SPICE", "type": "Store", "capacity_amt": 1500.0, "capacity_unit_col": "sqft" }, "geometry": { "type": "Point", "coordinates": [ -73.85219, 40.834142 ] } },
{ "type": "Feature", "properties": { "name": "A & Y GROCERY", "type": "Store", "capacity_amt": 1200.0, "capacity_unit_col": "sqft" }, "geometry": { "type": "Point", "coordinates": [ -73.878549, 40.872974 ] } },
{ "type": "Feature", "properties": { "name": "AZ GROCERY CORP  I", "type": "Store", "capacity_amt": 1100.0, "capacity_unit_col": "sqft" }, "geometry": { "type": "Point", "coordinates": [ -73.900571, 40.831537 ] } },
{ "type": "Feature", "properties": { "name": "BABIES R US", "type": "Store", "capacity_amt": 31000.0, "capacity_unit_col": "sqft" }, "geometry": { "type": "Point", "coordinates": [ -73.930612, 40.820226 ] } },
{ "type": "Feature", "properties": { "name": "B&A GOURMET DELI", "type": "Store", "capacity_amt": 2600.0, "capacity_unit_col": "sqft" }, "geometry": { "type": "Point", "coordinates": [ -73.919579, 40.807073 ] } },
{ "type": "Feature", "properties": { "name": "BANGLA DOWN SUPERMARKET", "type": "Store", "capacity_amt": 2000.0, "capacity_unit_col": "sqft" }, "geometry": { "type": "Point", "coordinates": [ -73.852885, 40.836294 ] } },
{ "type": "Feature", "properties": { "name": "BANGLA NAGOR MINI MARKE", "type": "Store", "capacity_amt": 1400.0, "capacity_unit_col": "sqft" }, "geometry": { "type": "Point", "coordinates": [ -73.883637, 40.880129 ] } },
{ "type": "Feature", "properties": { "name": "BANGLATOWN", "type": "Store", "capacity_amt": 1800.0, "capacity_unit_col": "sqft" }, "geometry": { "type": "Point", "coordinates": [ -73.879711, 40.884683 ] } },
{ "type": "Feature", "properties": { "name": "BANGLATOWN SUPERMARKET", "type": "Store", "capacity_amt": 4600.0, "capacity_unit_col": "sqft" }, "geometry": { "type": "Point", "coordinates": [ -73.863588, 40.832695 ] } },
{ "type": "Feature", "properties": { "name": "BARAKA AFRICAN MKT STOR", "type": "Store", "capacity_amt": 1800.0, "capacity_unit_col": "sqft" }, "geometry": { "type": "Point", "coordinates": [ -73.908133, 40.835102 ] } },
{ "type": "Feature", "properties": { "name": "BARBARA DELI FOOD", "type": "Store", "capacity_amt": 1200.0, "capacity_unit_col": "sqft" }, "geometry": { "type": "Point", "coordinates": [ -73.921837, 40.831031 ] } },
{ "type": "Feature", "properties": { "name": "BARGAIN TEAM", "type": "Store", "capacity_amt": 2500.0, "capacity_unit_col": "sqft" }, "geometry": { "type": "Point", "coordinates": [ -73.923529, 40.808246 ] } },
{ "type": "Feature", "properties": { "name": "BARINOS MARKET", "type": "Store", "capacity_amt": 3000.0, "capacity_unit_col": "sqft" }, "geometry": { "type": "Point", "coordinates": [ -73.819208, 40.846185 ] } },
{ "type": "Feature", "properties": { "name": "BATTAMBANG MARKET 2", "type": "Store", "capacity_amt": 1200.0, "capacity_unit_col": "sqft" }, "geometry": { "type": "Point", "coordinates": [ -73.893723, 40.865306 ] } },
{ "type": "Feature", "properties": { "name": "BAYCHESTER EXPRESS DELI", "type": "Store", "capacity_amt": 1400.0, "capacity_unit_col": "sqft" }, "geometry": { "type": "Point", "coordinates": [ -73.842281, 40.889305 ] } },
{ "type": "Feature", "properties": { "name": "BBB DELI GROCERY", "type": "Store", "capacity_amt": 1300.0, "capacity_unit_col": "sqft" }, "geometry": { "type": "Point", "coordinates": [ -73.901416, 40.853038 ] } },
{ "type": "Feature", "properties": { "name": "BBC DELI GROCERY", "type": "Store", "capacity_amt": 1800.0, "capacity_unit_col": "sqft" }, "geometry": { "type": "Point", "coordinates": [ -73.908195, 40.851192 ] } },
{ "type": "Feature", "properties": { "name": "BELLA DELI MARKET", "type": "Store", "capacity_amt": 1800.0, "capacity_unit_col": "sqft" }, "geometry": { "type": "Point", "coordinates": [ -73.817923, 40.820205 ] } },
{ "type": "Feature", "properties": { "name": "BENGALI HALAL GRC STORE", "type": "Store", "capacity_amt": 1400.0, "capacity_unit_col": "sqft" }, "geometry": { "type": "Point", "coordinates": [ -73.847688, 40.837471 ] } },
{ "type": "Feature", "properties": { "name": "BENS MARKET", "type": "Store", "capacity_amt": 3000.0, "capacity_unit_col": "sqft" }, "geometry": { "type": "Point", "coordinates": [ -73.917626, 40.878698 ] } },
{ "type": "Feature", "properties": { "name": "BEST BROTHERS DELI & GR", "type": "Store", "capacity_amt": 1200.0, "capacity_unit_col": "sqft" }, "geometry": { "type": "Point", "coordinates": [ -73.915773, 40.854345 ] } },
{ "type": "Feature", "properties": { "name": "BEST H&H", "type": "Store", "capacity_amt": 3000.0, "capacity_unit_col": "sqft" }, "geometry": { "type": "Point", "coordinates": [ -73.854952, 40.897709 ] } },
{ "type": "Feature", "properties": { "name": "BEST STOP DELI EXPRESS", "type": "Store", "capacity_amt": 2000.0, "capacity_unit_col": "sqft" }, "geometry": { "type": "Point", "coordinates": [ -73.845396, 40.870034 ] } },
{ "type": "Feature", "properties": { "name": "BEST & TASTY DELI GROCE", "type": "Store", "capacity_amt": 2400.0, "capacity_unit_col": "sqft" }, "geometry": { "type": "Point", "coordinates": [ -73.924339, 40.815155 ] } },
{ "type": "Feature", "properties": { "name": "BEST VALUE 99 CENTS", "type": "Store", "capacity_amt": 4000.0, "capacity_unit_col": "sqft" }, "geometry": { "type": "Point", "coordinates": [ -73.884416, 40.842102 ] } },
{ "type": "Feature", "properties": { "name": "BG FRUIT MARKET", "type": "Store", "capacity_amt": 1500.0, "capacity_unit_col": "sqft" }, "geometry": { "type": "Point", "coordinates": [ -73.901407, 40.820208 ] } },
{ "type": "Feature", "properties": { "name": "BHAGDATTS SPICES & SARE", "type": "Store", "capacity_amt": 1800.0, "capacity_unit_col": "sqft" }, "geometry": { "type": "Point", "coordinates": [ -73.908525, 40.854962 ] } },
{ "type": "Feature", "properties": { "name": "BHURE MINI MART & DELI", "type": "Store", "capacity_amt": 2000.0, "capacity_unit_col": "sqft" }, "geometry": { "type": "Point", "coordinates": [ -73.83057, 40.847644 ] } },
{ "type": "Feature", "properties": { "name": "BIANCARDI MEATS", "type": "Store", "capacity_amt": 2000.0, "capacity_unit_col": "sqft" }, "geometry": { "type": "Point", "coordinates": [ -73.888463, 40.854505 ] } },
{ "type": "Feature", "properties": { "name": "BIG DEAL SUPERMARKET", "type": "Store", "capacity_amt": 8500.0, "capacity_unit_col": "sqft" }, "geometry": { "type": "Point", "coordinates": [ -73.855625, 40.848389 ] } },
{ "type": "Feature", "properties": { "name": "BIG G DELI", "type": "Store", "capacity_amt": 1900.0, "capacity_unit_col": "sqft" }, "geometry": { "type": "Point", "coordinates": [ -73.883667, 40.880562 ] } },
{ "type": "Feature", "properties": { "name": "BILLYS DELI&GROCERY STR", "type": "Store", "capacity_amt": 1500.0, "capacity_unit_col": "sqft" }, "geometry": { "type": "Point", "coordinates": [ -73.904186, 40.862763 ] } },
{ "type": "Feature", "properties": { "name": "BJS WHOLESALE CLUB 176", "type": "Store", "capacity_amt": 4000.0, "capacity_unit_col": "sqft" }, "geometry": { "type": "Point", "coordinates": [ -73.930612, 40.820226 ] } },
{ "type": "Feature", "properties": { "name": "BLUE STORE DELI", "type": "Store", "capacity_amt": 1500.0, "capacity_unit_col": "sqft" }, "geometry": { "type": "Point", "coordinates": [ -73.82011, 40.82415 ] } },
{ "type": "Feature", "properties": { "name": "BLVD FOOD", "type": "Store", "capacity_amt": 1200.0, "capacity_unit_col": "sqft" }, "geometry": { "type": "Point", "coordinates": [ -73.885839, 40.841847 ] } },
{ "type": "Feature", "properties": { "name": "BMCB DELI GROCERY", "type": "Store", "capacity_amt": 1100.0, "capacity_unit_col": "sqft" }, "geometry": { "type": "Point", "coordinates": [ -73.84973, 40.826309 ] } },
{ "type": "Feature", "properties": { "name": "BM FISH MARKET", "type": "Store", "capacity_amt": 2000.0, "capacity_unit_col": "sqft" }, "geometry": { "type": "Point", "coordinates": [ -73.922622, 40.817703 ] } },
{ "type": "Feature", "properties": { "name": "B&M FRUIT MARKET AND GR", "type": "Store", "capacity_amt": 1300.0, "capacity_unit_col": "sqft" }, "geometry": { "type": "Point", "coordinates": [ -73.918158, 40.81621 ] } },
{ "type": "Feature", "properties": { "name": "BOB'S DISCOUNT FURNITUR", "type": "Store", "capacity_amt": 29000.0, "capacity_unit_col": "sqft" }, "geometry": { "type": "Point", "coordinates": [ -73.825665, 40.869371 ] } },
{ "type": "Feature", "properties": { "name": "BONAO MEATS AND PRODUCE", "type": "Store", "capacity_amt": 3000.0, "capacity_unit_col": "sqft" }, "geometry": { "type": "Point", "coordinates": [ -73.906023, 40.853312 ] } },
{ "type": "Feature", "properties": { "name": "BONAVITA KEY FOOD 1329", "type": "Store", "capacity_amt": 24000.0, "capacity_unit_col": "sqft" }, "geometry": { "type": "Point", "coordinates": [ -73.857627, 40.892974 ] } },
{ "type": "Feature", "properties": { "name": "BONOFUL GROCERY", "type": "Store", "capacity_amt": 1200.0, "capacity_unit_col": "sqft" }, "geometry": { "type": "Point", "coordinates": [ -73.904377, 40.857285 ] } },
{ "type": "Feature", "properties": { "name": "BOSTON GOURMET DELI", "type": "Store", "capacity_amt": 1200.0, "capacity_unit_col": "sqft" }, "geometry": { "type": "Point", "coordinates": [ -73.889541, 40.836324 ] } },
{ "type": "Feature", "properties": { "name": "BOSTON ROAD DELI GRCY", "type": "Store", "capacity_amt": 1200.0, "capacity_unit_col": "sqft" }, "geometry": { "type": "Point", "coordinates": [ -73.894422, 40.834615 ] } },
{ "type": "Feature", "properties": { "name": "BP GAS", "type": "Store", "capacity_amt": 1500.0, "capacity_unit_col": "sqft" }, "geometry": { "type": "Point", "coordinates": [ -73.91106, 40.805362 ] } },
{ "type": "Feature", "properties": { "name": "BRAVE DELI GROCERY", "type": "Store", "capacity_amt": 1700.0, "capacity_unit_col": "sqft" }, "geometry": { "type": "Point", "coordinates": [ -73.866581, 40.871433 ] } },
{ "type": "Feature", "properties": { "name": "BRAVO SUPERMARKET", "type": "Store", "capacity_amt": 4000.0, "capacity_unit_col": "sqft" }, "geometry": { "type": "Point", "coordinates": [ -73.906094, 40.859129 ] } },
{ "type": "Feature", "properties": { "name": "BRAVO SUPERMARKET", "type": "Store", "capacity_amt": 20000.0, "capacity_unit_col": "sqft" }, "geometry": { "type": "Point", "coordinates": [ -73.905818, 40.858818 ] } },
{ "type": "Feature", "properties": { "name": "BRAVO SUPERMARKET", "type": "Store", "capacity_amt": 5000.0, "capacity_unit_col": "sqft" }, "geometry": { "type": "Point", "coordinates": [ -73.91415, 40.853844 ] } },
{ "type": "Feature", "properties": { "name": "BRAVO SUPERMARKET", "type": "Store", "capacity_amt": 8000.0, "capacity_unit_col": "sqft" }, "geometry": { "type": "Point", "coordinates": [ -73.906945, 40.844707 ] } },
{ "type": "Feature", "properties": { "name": "BRAVO SUPERMARKET", "type": "Store", "capacity_amt": 15000.0, "capacity_unit_col": "sqft" }, "geometry": { "type": "Point", "coordinates": [ -73.913464, 40.838497 ] } },
{ "type": "Feature", "properties": { "name": "BRAVO SUPERMARKET", "type": "Store", "capacity_amt": 8000.0, "capacity_unit_col": "sqft" }, "geometry": { "type": "Point", "coordinates": [ -73.918479, 40.818899 ] } },
{ "type": "Feature", "properties": { "name": "BREA DELI GROCERY", "type": "Store", "capacity_amt": 1300.0, "capacity_unit_col": "sqft" }, "geometry": { "type": "Point", "coordinates": [ -73.918392, 40.819107 ] } },
{ "type": "Feature", "properties": { "name": "BRIANELLY DELI GROCERY", "type": "Store", "capacity_amt": 1200.0, "capacity_unit_col": "sqft" }, "geometry": { "type": "Point", "coordinates": [ -73.892631, 40.855823 ] } },
{ "type": "Feature", "properties": { "name": "BRIGGS GOURMET DELI", "type": "Store", "capacity_amt": 1100.0, "capacity_unit_col": "sqft" }, "geometry": { "type": "Point", "coordinates": [ -73.892607, 40.865233 ] } },
{ "type": "Feature", "properties": { "name": "BRIONE DISCOUNT", "type": "Store", "capacity_amt": 1800.0, "capacity_unit_col": "sqft" }, "geometry": { "type": "Point", "coordinates": [ -73.866997, 40.837519 ] } },
{ "type": "Feature", "properties": { "name": "BRITO DELI&GROCERY", "type": "Store", "capacity_amt": 1500.0, "capacity_unit_col": "sqft" }, "geometry": { "type": "Point", "coordinates": [ -73.915294, 40.808662 ] } },
{ "type": "Feature", "properties": { "name": "BRONX 99", "type": "Store", "capacity_amt": 1600.0, "capacity_unit_col": "sqft" }, "geometry": { "type": "Point", "coordinates": [ -73.877742, 40.828699 ] } },
{ "type": "Feature", "properties": { "name": "BRONX BAKING", "type": "Store", "capacity_amt": 1500.0, "capacity_unit_col": "sqft" }, "geometry": { "type": "Point", "coordinates": [ -73.909534, 40.801762 ] } },
{ "type": "Feature", "properties": { "name": "BRONX GOURMET FOOD", "type": "Store", "capacity_amt": 1500.0, "capacity_unit_col": "sqft" }, "geometry": { "type": "Point", "coordinates": [ -73.881237, 40.844352 ] } },
{ "type": "Feature", "properties": { "name": "BRONX MEAT & DELI", "type": "Store", "capacity_amt": 1800.0, "capacity_unit_col": "sqft" }, "geometry": { "type": "Point", "coordinates": [ -73.901656, 40.85801 ] } },
{ "type": "Feature", "properties": { "name": "BRONX PLAZA DELI GROCRY", "type": "Store", "capacity_amt": 1200.0, "capacity_unit_col": "sqft" }, "geometry": { "type": "Point", "coordinates": [ -73.908521, 40.853815 ] } },
{ "type": "Feature", "properties": { "name": "BRONX STAR", "type": "Store", "capacity_amt": 1500.0, "capacity_unit_col": "sqft" }, "geometry": { "type": "Point", "coordinates": [ -73.904621, 40.860794 ] } },
{ "type": "Feature", "properties": { "name": "BRONX VIEW DELI & GROCE", "type": "Store", "capacity_amt": 1200.0, "capacity_unit_col": "sqft" }, "geometry": { "type": "Point", "coordinates": [ -73.866479, 40.865448 ] } },
{ "type": "Feature", "properties": { "name": "BRONX ZOO DELI", "type": "Store", "capacity_amt": 1100.0, "capacity_unit_col": "sqft" }, "geometry": { "type": "Point", "coordinates": [ -73.883086, 40.853753 ] } },
{ "type": "Feature", "properties": { "name": "BROTHERHOOD GOURMET DEL", "type": "Store", "capacity_amt": 1800.0, "capacity_unit_col": "sqft" }, "geometry": { "type": "Point", "coordinates": [ -73.899147, 40.813555 ] } },
{ "type": "Feature", "properties": { "name": "BROTHER MEAT & MARKET", "type": "Store", "capacity_amt": 1500.0, "capacity_unit_col": "sqft" }, "geometry": { "type": "Point", "coordinates": [ -73.918668, 40.807322 ] } },
{ "type": "Feature", "properties": { "name": "BROTHERS FOOD MARKET", "type": "Store", "capacity_amt": 3000.0, "capacity_unit_col": "sqft" }, "geometry": { "type": "Point", "coordinates": [ -73.884729, 40.849264 ] } },
{ "type": "Feature", "properties": { "name": "BROTHERS PRODUCE & FISH", "type": "Store", "capacity_amt": 5300.0, "capacity_unit_col": "sqft" }, "geometry": { "type": "Point", "coordinates": [ -73.853046, 40.873114 ] } },
{ "type": "Feature", "properties": { "name": "BS GROCERY", "type": "Store", "capacity_amt": 2500.0, "capacity_unit_col": "sqft" }, "geometry": { "type": "Point", "coordinates": [ -73.898845, 40.861427 ] } },
{ "type": "Feature", "properties": { "name": "BURKE 99 CENTS", "type": "Store", "capacity_amt": 1200.0, "capacity_unit_col": "sqft" }, "geometry": { "type": "Point", "coordinates": [ -73.866349, 40.871427 ] } },
{ "type": "Feature", "properties": { "name": "BURNSIDE AVE FOOD CTR", "type": "Store", "capacity_amt": 2500.0, "capacity_unit_col": "sqft" }, "geometry": { "type": "Point", "coordinates": [ -73.90513, 40.852968 ] } },
{ "type": "Feature", "properties": { "name": "BURNSIDE'S GOURMET DELI", "type": "Store", "capacity_amt": 1500.0, "capacity_unit_col": "sqft" }, "geometry": { "type": "Point", "coordinates": [ -73.909041, 40.853832 ] } },
{ "type": "Feature", "properties": { "name": "BUS STOP FOOD #2", "type": "Store", "capacity_amt": 2000.0, "capacity_unit_col": "sqft" }, "geometry": { "type": "Point", "coordinates": [ -73.92331, 40.817583 ] } },
{ "type": "Feature", "properties": { "name": "BUSY TOWN", "type": "Store", "capacity_amt": 1800.0, "capacity_unit_col": "sqft" }, "geometry": { "type": "Point", "coordinates": [ -73.851305, 40.833035 ] } },
{ "type": "Feature", "properties": { "name": "BUTCHERS CHOICE MT MKT", "type": "Store", "capacity_amt": 1300.0, "capacity_unit_col": "sqft" }, "geometry": { "type": "Point", "coordinates": [ -73.916775, 40.8157 ] } },
{ "type": "Feature", "properties": { "name": "BUTCHERS CHOICE THE", "type": "Store", "capacity_amt": 1400.0, "capacity_unit_col": "sqft" }, "geometry": { "type": "Point", "coordinates": [ -73.915443, 40.815135 ] } },
{ "type": "Feature", "properties": { "name": "BX MARKETITA", "type": "Store", "capacity_amt": 1200.0, "capacity_unit_col": "sqft" }, "geometry": { "type": "Point", "coordinates": [ -73.914449, 40.853893 ] } },
{ "type": "Feature", "properties": { "name": "C3 DELI", "type": "Store", "capacity_amt": 2400.0, "capacity_unit_col": "sqft" }, "geometry": { "type": "Point", "coordinates": [ -73.866934, 40.871441 ] } },
{ "type": "Feature", "properties": { "name": "CABRERA BUYING", "type": "Store", "capacity_amt": 3000.0, "capacity_unit_col": "sqft" }, "geometry": { "type": "Point", "coordinates": [ -73.912115, 40.854016 ] } },
{ "type": "Feature", "properties": { "name": "CACAO DELI GROCERY", "type": "Store", "capacity_amt": 1200.0, "capacity_unit_col": "sqft" }, "geometry": { "type": "Point", "coordinates": [ -73.888037, 40.820324 ] } },
{ "type": "Feature", "properties": { "name": "CACHEO FOOD", "type": "Store", "capacity_amt": 1500.0, "capacity_unit_col": "sqft" }, "geometry": { "type": "Point", "coordinates": [ -73.9194, 40.829452 ] } },
{ "type": "Feature", "properties": { "name": "CAKE MASTERS", "type": "Store", "capacity_amt": 3500.0, "capacity_unit_col": "sqft" }, "geometry": { "type": "Point", "coordinates": [ -73.909168, 40.831291 ] } },
{ "type": "Feature", "properties": { "name": "CALABRIA PORK STORE", "type": "Store", "capacity_amt": 2000.0, "capacity_unit_col": "sqft" }, "geometry": { "type": "Point", "coordinates": [ -73.888748, 40.854171 ] } },
{ "type": "Feature", "properties": { "name": "CALIFORNIA DELI GROCERY", "type": "Store", "capacity_amt": 1200.0, "capacity_unit_col": "sqft" }, "geometry": { "type": "Point", "coordinates": [ -73.919691, 40.807752 ] } },
{ "type": "Feature", "properties": { "name": "CAMILLA GROCERY STORE", "type": "Store", "capacity_amt": 1200.0, "capacity_unit_col": "sqft" }, "geometry": { "type": "Point", "coordinates": [ -73.889667, 40.836251 ] } },
{ "type": "Feature", "properties": { "name": "CAMILOS DELI NO 2", "type": "Store", "capacity_amt": 1200.0, "capacity_unit_col": "sqft" }, "geometry": { "type": "Point", "coordinates": [ -73.848219, 40.819832 ] } },
{ "type": "Feature", "properties": { "name": "CANCUN DELI GROCERY", "type": "Store", "capacity_amt": 1300.0, "capacity_unit_col": "sqft" }, "geometry": { "type": "Point", "coordinates": [ -73.897881, 40.821007 ] } },
{ "type": "Feature", "properties": { "name": "CANDY DELI GROCERY", "type": "Store", "capacity_amt": 1500.0, "capacity_unit_col": "sqft" }, "geometry": { "type": "Point", "coordinates": [ -73.906735, 40.837457 ] } },
{ "type": "Feature", "properties": { "name": "CARIBBEAN VARIETY STORE", "type": "Store", "capacity_amt": 1500.0, "capacity_unit_col": "sqft" }, "geometry": { "type": "Point", "coordinates": [ -73.880949, 40.828421 ] } },
{ "type": "Feature", "properties": { "name": "CARINO GROCERY", "type": "Store", "capacity_amt": 1200.0, "capacity_unit_col": "sqft" }, "geometry": { "type": "Point", "coordinates": [ -73.888663, 40.851276 ] } },
{ "type": "Feature", "properties": { "name": "CASA DELLA MOZZARELLA", "type": "Store", "capacity_amt": 1600.0, "capacity_unit_col": "sqft" }, "geometry": { "type": "Point", "coordinates": [ -73.887398, 40.855472 ] } },
{ "type": "Feature", "properties": { "name": "CASADO DELI GROCERY STR", "type": "Store", "capacity_amt": 1500.0, "capacity_unit_col": "sqft" }, "geometry": { "type": "Point", "coordinates": [ -73.914161, 40.805422 ] } },
{ "type": "Feature", "properties": { "name": "CASTILLO FAMILY GROCERY", "type": "Store", "capacity_amt": 1500.0, "capacity_unit_col": "sqft" }, "geometry": { "type": "Point", "coordinates": [ -73.896829, 40.81668 ] } },
{ "type": "Feature", "properties": { "name": "CASTILLO MEAT & PRODUCE", "type": "Store", "capacity_amt": 1700.0, "capacity_unit_col": "sqft" }, "geometry": { "type": "Point", "coordinates": [ -73.887442, 40.833277 ] } },
{ "type": "Feature", "properties": { "name": "CASTLE DELI & GROCERY", "type": "Store", "capacity_amt": 1500.0, "capacity_unit_col": "sqft" }, "geometry": { "type": "Point", "coordinates": [ -73.848608, 40.821492 ] } },
{ "type": "Feature", "properties": { "name": "CCA FOOD", "type": "Store", "capacity_amt": 1200.0, "capacity_unit_col": "sqft" }, "geometry": { "type": "Point", "coordinates": [ -73.87495, 40.831794 ] } },
{ "type": "Feature", "properties": { "name": "C&C FARM", "type": "Store", "capacity_amt": 1800.0, "capacity_unit_col": "sqft" }, "geometry": { "type": "Point", "coordinates": [ -73.868038, 40.865419 ] } },
{ "type": "Feature", "properties": { "name": "C&G ESPINOSA", "type": "Store", "capacity_amt": 1500.0, "capacity_unit_col": "sqft" }, "geometry": { "type": "Point", "coordinates": [ -73.916656, 40.822688 ] } },
{ "type": "Feature", "properties": { "name": "CHANG LI SUPERMARKET", "type": "Store", "capacity_amt": 15000.0, "capacity_unit_col": "sqft" }, "geometry": { "type": "Point", "coordinates": [ -73.855043, 40.834627 ] } },
{ "type": "Feature", "properties": { "name": "CHAVEZ GROCERY & DELI", "type": "Store", "capacity_amt": 1100.0, "capacity_unit_col": "sqft" }, "geometry": { "type": "Point", "coordinates": [ -73.879644, 40.876284 ] } },
{ "type": "Feature", "properties": { "name": "CHERRY VALLEY", "type": "Store", "capacity_amt": 17500.0, "capacity_unit_col": "sqft" }, "geometry": { "type": "Point", "coordinates": [ -73.861445, 40.875797 ] } },
{ "type": "Feature", "properties": { "name": "CHERRY VALLEY MARKETPLA", "type": "Store", "capacity_amt": 18000.0, "capacity_unit_col": "sqft" }, "geometry": { "type": "Point", "coordinates": [ -73.883988, 40.866992 ] } },
{ "type": "Feature", "properties": { "name": "CHERRY VALLEY MARKETPLA", "type": "Store", "capacity_amt": 6000.0, "capacity_unit_col": "sqft" }, "geometry": { "type": "Point", "coordinates": [ -73.891896, 40.860241 ] } },
{ "type": "Feature", "properties": { "name": "CHOCOLATE PLACE", "type": "Store", "capacity_amt": 1200.0, "capacity_unit_col": "sqft" }, "geometry": { "type": "Point", "coordinates": [ -73.861384, 40.846208 ] } },
{ "type": "Feature", "properties": { "name": "CHRISTOPHER MINI MARKET", "type": "Store", "capacity_amt": 1200.0, "capacity_unit_col": "sqft" }, "geometry": { "type": "Point", "coordinates": [ -73.87791, 40.826125 ] } },
{ "type": "Feature", "properties": { "name": "CIRCLE DELI GROCERY", "type": "Store", "capacity_amt": 1300.0, "capacity_unit_col": "sqft" }, "geometry": { "type": "Point", "coordinates": [ -73.860684, 40.832712 ] } },
{ "type": "Feature", "properties": { "name": "CITY BEST DELI GROCERY", "type": "Store", "capacity_amt": 1200.0, "capacity_unit_col": "sqft" }, "geometry": { "type": "Point", "coordinates": [ -73.888647, 40.836027 ] } },
{ "type": "Feature", "properties": { "name": "CITY LINE FRUIT STORE", "type": "Store", "capacity_amt": 1200.0, "capacity_unit_col": "sqft" }, "geometry": { "type": "Point", "coordinates": [ -73.849999, 40.903854 ] } },
{ "type": "Feature", "properties": { "name": "CLAREMONT PARK DELI GRO", "type": "Store", "capacity_amt": 14000.0, "capacity_unit_col": "sqft" }, "geometry": { "type": "Point", "coordinates": [ -73.905195, 40.839977 ] } },
{ "type": "Feature", "properties": { "name": "CLAY CONVENIENCE STORE", "type": "Store", "capacity_amt": 1500.0, "capacity_unit_col": "sqft" }, "geometry": { "type": "Point", "coordinates": [ -73.91026, 40.832495 ] } },
{ "type": "Feature", "properties": { "name": "C MARKET FOODS", "type": "Store", "capacity_amt": 16000.0, "capacity_unit_col": "sqft" }, "geometry": { "type": "Point", "coordinates": [ -73.863489, 40.882395 ] } },
{ "type": "Feature", "properties": { "name": "COFACI FOODS", "type": "Store", "capacity_amt": 2500.0, "capacity_unit_col": "sqft" }, "geometry": { "type": "Point", "coordinates": [ -73.91673, 40.811867 ] } },
{ "type": "Feature", "properties": { "name": "COMMUNITY DELI FOOD MKT", "type": "Store", "capacity_amt": 1100.0, "capacity_unit_col": "sqft" }, "geometry": { "type": "Point", "coordinates": [ -73.864727, 40.886199 ] } },
{ "type": "Feature", "properties": { "name": "COMMUNITY GREEN MARKET", "type": "Store", "capacity_amt": 3000.0, "capacity_unit_col": "sqft" }, "geometry": { "type": "Point", "coordinates": [ -73.867608, 40.858463 ] } },
{ "type": "Feature", "properties": { "name": "COMPARE FOOD", "type": "Store", "capacity_amt": 4000.0, "capacity_unit_col": "sqft" }, "geometry": { "type": "Point", "coordinates": [ -73.891807, 40.864436 ] } },
{ "type": "Feature", "properties": { "name": "COMPARE FOOD MARKET", "type": "Store", "capacity_amt": 3000.0, "capacity_unit_col": "sqft" }, "geometry": { "type": "Point", "coordinates": [ -73.914358, 40.805784 ] } },
{ "type": "Feature", "properties": { "name": "COMPARE FOODS", "type": "Store", "capacity_amt": 6000.0, "capacity_unit_col": "sqft" }, "geometry": { "type": "Point", "coordinates": [ -73.867764, 40.85278 ] } },
{ "type": "Feature", "properties": { "name": "COMPARE FOODS", "type": "Store", "capacity_amt": 8000.0, "capacity_unit_col": "sqft" }, "geometry": { "type": "Point", "coordinates": [ -73.886637, 40.815377 ] } },
{ "type": "Feature", "properties": { "name": "COMPARE FOOD SUPERMARKE", "type": "Store", "capacity_amt": 3000.0, "capacity_unit_col": "sqft" }, "geometry": { "type": "Point", "coordinates": [ -73.900705, 40.8682 ] } },
{ "type": "Feature", "properties": { "name": "COMPARE SUPERMARKET", "type": "Store", "capacity_amt": 2000.0, "capacity_unit_col": "sqft" }, "geometry": { "type": "Point", "coordinates": [ -73.881301, 40.82839 ] } },
{ "type": "Feature", "properties": { "name": "COMPARE SUPERMARKET", "type": "Store", "capacity_amt": 2000.0, "capacity_unit_col": "sqft" }, "geometry": { "type": "Point", "coordinates": [ -73.905132, 40.827088 ] } },
{ "type": "Feature", "properties": { "name": "CONCOURSE VILLAGE DELI", "type": "Store", "capacity_amt": 2400.0, "capacity_unit_col": "sqft" }, "geometry": { "type": "Point", "coordinates": [ -73.918207, 40.82348 ] } },
{ "type": "Feature", "properties": { "name": "CONGRESS PHARMACY", "type": "Store", "capacity_amt": 1500.0, "capacity_unit_col": "sqft" }, "geometry": { "type": "Point", "coordinates": [ -73.903812, 40.812224 ] } },
{ "type": "Feature", "properties": { "name": "CONTENTO FOOD CENTER", "type": "Store", "capacity_amt": 1200.0, "capacity_unit_col": "sqft" }, "geometry": { "type": "Point", "coordinates": [ -73.911361, 40.854708 ] } },
{ "type": "Feature", "properties": { "name": "COOKIE FACTORY", "type": "Store", "capacity_amt": 14000.0, "capacity_unit_col": "sqft" }, "geometry": { "type": "Point", "coordinates": [ -73.839631, 40.876466 ] } },
{ "type": "Feature", "properties": { "name": "COURTSIDE GOURMET", "type": "Store", "capacity_amt": 1100.0, "capacity_unit_col": "sqft" }, "geometry": { "type": "Point", "coordinates": [ -73.917986, 40.826425 ] } },
{ "type": "Feature", "properties": { "name": "COUSINS DELI GROCERY", "type": "Store", "capacity_amt": 1800.0, "capacity_unit_col": "sqft" }, "geometry": { "type": "Point", "coordinates": [ -73.877915, 40.833959 ] } },
{ "type": "Feature", "properties": { "name": "CRB DELI", "type": "Store", "capacity_amt": 1200.0, "capacity_unit_col": "sqft" }, "geometry": { "type": "Point", "coordinates": [ -73.903637, 40.860972 ] } },
{ "type": "Feature", "properties": { "name": "CR DOLLARS AND MORE", "type": "Store", "capacity_amt": 1400.0, "capacity_unit_col": "sqft" }, "geometry": { "type": "Point", "coordinates": [ -73.902001, 40.812739 ] } },
{ "type": "Feature", "properties": { "name": "CRISMELI DELI GROCERY", "type": "Store", "capacity_amt": 1500.0, "capacity_unit_col": "sqft" }, "geometry": { "type": "Point", "coordinates": [ -73.918348, 40.809048 ] } },
{ "type": "Feature", "properties": { "name": "CROSBY AVENUE DELI", "type": "Store", "capacity_amt": 2500.0, "capacity_unit_col": "sqft" }, "geometry": { "type": "Point", "coordinates": [ -73.831368, 40.845676 ] } },
{ "type": "Feature", "properties": { "name": "CRUZ DELI GROCERY", "type": "Store", "capacity_amt": 2400.0, "capacity_unit_col": "sqft" }, "geometry": { "type": "Point", "coordinates": [ -73.925182, 40.836298 ] } },
{ "type": "Feature", "properties": { "name": "CRUZ FOOD MARKET", "type": "Store", "capacity_amt": 1200.0, "capacity_unit_col": "sqft" }, "geometry": { "type": "Point", "coordinates": [ -73.888605, 40.868755 ] } },
{ "type": "Feature", "properties": { "name": "C&S VALUE STORES", "type": "Store", "capacity_amt": 4000.0, "capacity_unit_col": "sqft" }, "geometry": { "type": "Point", "coordinates": [ -73.895734, 40.86675 ] } },
{ "type": "Feature", "properties": { "name": "C TOWN", "type": "Store", "capacity_amt": 16000.0, "capacity_unit_col": "sqft" }, "geometry": { "type": "Point", "coordinates": [ -73.91799, 40.830208 ] } },
{ "type": "Feature", "properties": { "name": "C TOWN", "type": "Store", "capacity_amt": 8000.0, "capacity_unit_col": "sqft" }, "geometry": { "type": "Point", "coordinates": [ -73.902808, 40.812513 ] } },
{ "type": "Feature", "properties": { "name": "C TOWN", "type": "Store", "capacity_amt": 15000.0, "capacity_unit_col": "sqft" }, "geometry": { "type": "Point", "coordinates": [ -73.832372, 40.884541 ] } },
{ "type": "Feature", "properties": { "name": "C TOWN", "type": "Store", "capacity_amt": 2600.0, "capacity_unit_col": "sqft" }, "geometry": { "type": "Point", "coordinates": [ -73.919575, 40.807079 ] } },
{ "type": "Feature", "properties": { "name": "C TOWN", "type": "Store", "capacity_amt": 10000.0, "capacity_unit_col": "sqft" }, "geometry": { "type": "Point", "coordinates": [ -73.916975, 40.849289 ] } },
{ "type": "Feature", "properties": { "name": "C TOWN", "type": "Store", "capacity_amt": 12000.0, "capacity_unit_col": "sqft" }, "geometry": { "type": "Point", "coordinates": [ -73.91711, 40.841029 ] } },
{ "type": "Feature", "properties": { "name": "C TOWN", "type": "Store", "capacity_amt": 5000.0, "capacity_unit_col": "sqft" }, "geometry": { "type": "Point", "coordinates": [ -73.901042, 40.85757 ] } },
{ "type": "Feature", "properties": { "name": "C TOWN", "type": "Store", "capacity_amt": 12000.0, "capacity_unit_col": "sqft" }, "geometry": { "type": "Point", "coordinates": [ -73.861913, 40.839771 ] } },
{ "type": "Feature", "properties": { "name": "C TOWN", "type": "Store", "capacity_amt": 2500.0, "capacity_unit_col": "sqft" }, "geometry": { "type": "Point", "coordinates": [ -73.849173, 40.8844 ] } },
{ "type": "Feature", "properties": { "name": "C TOWN", "type": "Store", "capacity_amt": 10000.0, "capacity_unit_col": "sqft" }, "geometry": { "type": "Point", "coordinates": [ -73.89273, 40.871203 ] } },
{ "type": "Feature", "properties": { "name": "C TOWN", "type": "Store", "capacity_amt": 10000.0, "capacity_unit_col": "sqft" }, "geometry": { "type": "Point", "coordinates": [ -73.921098, 40.814238 ] } },
{ "type": "Feature", "properties": { "name": "C TOWN", "type": "Store", "capacity_amt": 7500.0, "capacity_unit_col": "sqft" }, "geometry": { "type": "Point", "coordinates": [ -73.895697, 40.816821 ] } },
{ "type": "Feature", "properties": { "name": "C TOWN", "type": "Store", "capacity_amt": 8000.0, "capacity_unit_col": "sqft" }, "geometry": { "type": "Point", "coordinates": [ -73.908489, 40.875691 ] } },
{ "type": "Feature", "properties": { "name": "C TOWN", "type": "Store", "capacity_amt": 15000.0, "capacity_unit_col": "sqft" }, "geometry": { "type": "Point", "coordinates": [ -73.904666, 40.84906 ] } },
{ "type": "Feature", "properties": { "name": "C-TOWN", "type": "Store", "capacity_amt": 5000.0, "capacity_unit_col": "sqft" }, "geometry": { "type": "Point", "coordinates": [ -73.868003, 40.856636 ] } },
{ "type": "Feature", "properties": { "name": "C-TOWN", "type": "Store", "capacity_amt": 6000.0, "capacity_unit_col": "sqft" }, "geometry": { "type": "Point", "coordinates": [ -73.903564, 40.834956 ] } },
{ "type": "Feature", "properties": { "name": "C-TOWN", "type": "Store", "capacity_amt": 5000.0, "capacity_unit_col": "sqft" }, "geometry": { "type": "Point", "coordinates": [ -73.90113, 40.905389 ] } },
{ "type": "Feature", "properties": { "name": "C TOWN 054", "type": "Store", "capacity_amt": 8000.0, "capacity_unit_col": "sqft" }, "geometry": { "type": "Point", "coordinates": [ -73.860947, 40.832672 ] } },
{ "type": "Feature", "properties": { "name": "C TOWN SUPERMARKET", "type": "Store", "capacity_amt": 5000.0, "capacity_unit_col": "sqft" }, "geometry": { "type": "Point", "coordinates": [ -73.901179, 40.831458 ] } },
{ "type": "Feature", "properties": { "name": "C TOWN SUPERMARKET", "type": "Store", "capacity_amt": 10000.0, "capacity_unit_col": "sqft" }, "geometry": { "type": "Point", "coordinates": [ -73.91723, 40.807181 ] } },
{ "type": "Feature", "properties": { "name": "C TOWN SUPERMARKET", "type": "Store", "capacity_amt": 7000.0, "capacity_unit_col": "sqft" }, "geometry": { "type": "Point", "coordinates": [ -73.885961, 40.854171 ] } },
{ "type": "Feature", "properties": { "name": "C-TOWN SUPERMARKET", "type": "Store", "capacity_amt": 5200.0, "capacity_unit_col": "sqft" }, "geometry": { "type": "Point", "coordinates": [ -73.901318, 40.874861 ] } },
{ "type": "Feature", "properties": { "name": "C-TOWN SUPERMARKET", "type": "Store", "capacity_amt": 7000.0, "capacity_unit_col": "sqft" }, "geometry": { "type": "Point", "coordinates": [ -73.883854, 40.874048 ] } },
{ "type": "Feature", "properties": { "name": "C-TOWN SUPERMARKET", "type": "Store", "capacity_amt": 4000.0, "capacity_unit_col": "sqft" }, "geometry": { "type": "Point", "coordinates": [ -73.86715, 40.897415 ] } },
{ "type": "Feature", "properties": { "name": "CVS PHARMACY 02430", "type": "Store", "capacity_amt": 5000.0, "capacity_unit_col": "sqft" }, "geometry": { "type": "Point", "coordinates": [ -73.920352, 40.826177 ] } },
{ "type": "Feature", "properties": { "name": "CVS PHARMACY 02433", "type": "Store", "capacity_amt": 10000.0, "capacity_unit_col": "sqft" }, "geometry": { "type": "Point", "coordinates": [ -73.867733, 40.853856 ] } },
{ "type": "Feature", "properties": { "name": "CVS PHARMACY 02437", "type": "Store", "capacity_amt": 1500.0, "capacity_unit_col": "sqft" }, "geometry": { "type": "Point", "coordinates": [ -73.866146, 40.865452 ] } },
{ "type": "Feature", "properties": { "name": "CVS PHARMACY 02438", "type": "Store", "capacity_amt": 3500.0, "capacity_unit_col": "sqft" }, "geometry": { "type": "Point", "coordinates": [ -73.922134, 40.817175 ] } },
{ "type": "Feature", "properties": { "name": "CVS PHARMACY 02551", "type": "Store", "capacity_amt": 4000.0, "capacity_unit_col": "sqft" }, "geometry": { "type": "Point", "coordinates": [ -73.879381, 40.874429 ] } },
{ "type": "Feature", "properties": { "name": "CVS PHARMACY 02697", "type": "Store", "capacity_amt": 5000.0, "capacity_unit_col": "sqft" }, "geometry": { "type": "Point", "coordinates": [ -73.827287, 40.852426 ] } },
{ "type": "Feature", "properties": { "name": "CVS PHARMACY 07066", "type": "Store", "capacity_amt": 2500.0, "capacity_unit_col": "sqft" }, "geometry": { "type": "Point", "coordinates": [ -73.910599, 40.885773 ] } },
{ "type": "Feature", "properties": { "name": "CVS PHARMACY 7067", "type": "Store", "capacity_amt": 6000.0, "capacity_unit_col": "sqft" }, "geometry": { "type": "Point", "coordinates": [ -73.853302, 40.852781 ] } },
{ "type": "Feature", "properties": { "name": "CVS PHARMACY #8940", "type": "Store", "capacity_amt": 8000.0, "capacity_unit_col": "sqft" }, "geometry": { "type": "Point", "coordinates": [ -73.871395, 40.830432 ] } },
{ "type": "Feature", "properties": { "name": "CVS PHARMACY #8969", "type": "Store", "capacity_amt": 6400.0, "capacity_unit_col": "sqft" }, "geometry": { "type": "Point", "coordinates": [ -73.920626, 40.835512 ] } },
{ "type": "Feature", "properties": { "name": "CYPRESS 138 DELI GROCER", "type": "Store", "capacity_amt": 1800.0, "capacity_unit_col": "sqft" }, "geometry": { "type": "Point", "coordinates": [ -73.91471, 40.805654 ] } },
{ "type": "Feature", "properties": { "name": "DAY & NIGHT DELI GROCER", "type": "Store", "capacity_amt": 1300.0, "capacity_unit_col": "sqft" }, "geometry": { "type": "Point", "coordinates": [ -73.899566, 40.813949 ] } },
{ "type": "Feature", "properties": { "name": "DC DISCOUNT STORE INC", "type": "Store", "capacity_amt": 1300.0, "capacity_unit_col": "sqft" }, "geometry": { "type": "Point", "coordinates": [ -73.894864, 40.846479 ] } },
{ "type": "Feature", "properties": { "name": "DEFENDERS GOURMET DELI", "type": "Store", "capacity_amt": 1200.0, "capacity_unit_col": "sqft" }, "geometry": { "type": "Point", "coordinates": [ -73.914387, 40.824353 ] } },
{ "type": "Feature", "properties": { "name": "DEGNORA DELI GROCERY", "type": "Store", "capacity_amt": 1500.0, "capacity_unit_col": "sqft" }, "geometry": { "type": "Point", "coordinates": [ -73.901726, 40.831893 ] } },
{ "type": "Feature", "properties": { "name": "DELI FARMS", "type": "Store", "capacity_amt": 2000.0, "capacity_unit_col": "sqft" }, "geometry": { "type": "Point", "coordinates": [ -73.901333, 40.819366 ] } },
{ "type": "Feature", "properties": { "name": "DELI MINI MARKET", "type": "Store", "capacity_amt": 1100.0, "capacity_unit_col": "sqft" }, "geometry": { "type": "Point", "coordinates": [ -73.917685, 40.84225 ] } },
{ "type": "Feature", "properties": { "name": "DE LOS MILAGROS GROCERY", "type": "Store", "capacity_amt": 1500.0, "capacity_unit_col": "sqft" }, "geometry": { "type": "Point", "coordinates": [ -73.92248, 40.809683 ] } },
{ "type": "Feature", "properties": { "name": "DE LUXE DELI", "type": "Store", "capacity_amt": 1500.0, "capacity_unit_col": "sqft" }, "geometry": { "type": "Point", "coordinates": [ -73.837531, 40.879108 ] } },
{ "type": "Feature", "properties": { "name": "DE REIMER FOOD", "type": "Store", "capacity_amt": 1200.0, "capacity_unit_col": "sqft" }, "geometry": { "type": "Point", "coordinates": [ -73.838007, 40.881543 ] } },
{ "type": "Feature", "properties": { "name": "DERVIN GROCERY", "type": "Store", "capacity_amt": 2000.0, "capacity_unit_col": "sqft" }, "geometry": { "type": "Point", "coordinates": [ -73.907845, 40.811206 ] } },
{ "type": "Feature", "properties": { "name": "DESTINY DELI GROCERY", "type": "Store", "capacity_amt": 1200.0, "capacity_unit_col": "sqft" }, "geometry": { "type": "Point", "coordinates": [ -73.91811, 40.838794 ] } },
{ "type": "Feature", "properties": { "name": "DEVOE GROCERY STORE", "type": "Store", "capacity_amt": 1200.0, "capacity_unit_col": "sqft" }, "geometry": { "type": "Point", "coordinates": [ -73.877798, 40.839346 ] } },
{ "type": "Feature", "properties": { "name": "D&G DELI", "type": "Store", "capacity_amt": 1200.0, "capacity_unit_col": "sqft" }, "geometry": { "type": "Point", "coordinates": [ -73.855774, 40.856246 ] } },
{ "type": "Feature", "properties": { "name": "DG GROCERY", "type": "Store", "capacity_amt": 3000.0, "capacity_unit_col": "sqft" }, "geometry": { "type": "Point", "coordinates": [ -73.922924, 40.817037 ] } },
{ "type": "Feature", "properties": { "name": "DHAKA DISCOUNT&GROCERY", "type": "Store", "capacity_amt": 1200.0, "capacity_unit_col": "sqft" }, "geometry": { "type": "Point", "coordinates": [ -73.879117, 40.873584 ] } },
{ "type": "Feature", "properties": { "name": "DHAKA SUPERMARKET & HAL", "type": "Store", "capacity_amt": 5000.0, "capacity_unit_col": "sqft" }, "geometry": { "type": "Point", "coordinates": [ -73.877366, 40.871688 ] } },
{ "type": "Feature", "properties": { "name": "DIAMOND FISH AND MEAT M", "type": "Store", "capacity_amt": 1100.0, "capacity_unit_col": "sqft" }, "geometry": { "type": "Point", "coordinates": [ -73.910113, 40.834353 ] } },
{ "type": "Feature", "properties": { "name": "DIAS SUPER DELI&GROCERY", "type": "Store", "capacity_amt": 1440.0, "capacity_unit_col": "sqft" }, "geometry": { "type": "Point", "coordinates": [ -73.860604, 40.828269 ] } },
{ "type": "Feature", "properties": { "name": "DIPLOMAT CATERER", "type": "Store", "capacity_amt": 4000.0, "capacity_unit_col": "sqft" }, "geometry": { "type": "Point", "coordinates": [ -73.843701, 40.837775 ] } },
{ "type": "Feature", "properties": { "name": "DISCOUNT BAZAAR", "type": "Store", "capacity_amt": 3000.0, "capacity_unit_col": "sqft" }, "geometry": { "type": "Point", "coordinates": [ -73.910227, 40.831363 ] } },
{ "type": "Feature", "properties": { "name": "DISCOUNT CRAZE", "type": "Store", "capacity_amt": 2200.0, "capacity_unit_col": "sqft" }, "geometry": { "type": "Point", "coordinates": [ -73.917365, 40.827577 ] } },
{ "type": "Feature", "properties": { "name": "DISCOUNT FOREVER INC", "type": "Store", "capacity_amt": 4000.0, "capacity_unit_col": "sqft" }, "geometry": { "type": "Point", "coordinates": [ -73.913109, 40.838366 ] } },
{ "type": "Feature", "properties": { "name": "DOLLAR EXPO", "type": "Store", "capacity_amt": 5000.0, "capacity_unit_col": "sqft" }, "geometry": { "type": "Point", "coordinates": [ -73.912257, 40.847849 ] } },
{ "type": "Feature", "properties": { "name": "DOLLAR GENERAL # 19205", "type": "Store", "capacity_amt": 1500.0, "capacity_unit_col": "sqft" }, "geometry": { "type": "Point", "coordinates": [ -73.891576, 40.831137 ] } },
{ "type": "Feature", "properties": { "name": "DOLLAR GENERAL # 19207", "type": "Store", "capacity_amt": 7800.0, "capacity_unit_col": "sqft" }, "geometry": { "type": "Point", "coordinates": [ -73.867459, 40.863457 ] } },
{ "type": "Feature", "properties": { "name": "DOLLAR GENERAL # 19208", "type": "Store", "capacity_amt": 7500.0, "capacity_unit_col": "sqft" }, "geometry": { "type": "Point", "coordinates": [ -73.865764, 40.878816 ] } },
{ "type": "Feature", "properties": { "name": "DOLLAR GENERAL # 19211", "type": "Store", "capacity_amt": 1500.0, "capacity_unit_col": "sqft" }, "geometry": { "type": "Point", "coordinates": [ -73.892889, 40.81954 ] } },
{ "type": "Feature", "properties": { "name": "DOLLAR HEAVEN & DISCOUT", "type": "Store", "capacity_amt": 4500.0, "capacity_unit_col": "sqft" }, "geometry": { "type": "Point", "coordinates": [ -73.855721, 40.840507 ] } },
{ "type": "Feature", "properties": { "name": "DOLLAR JUNCTION", "type": "Store", "capacity_amt": 3000.0, "capacity_unit_col": "sqft" }, "geometry": { "type": "Point", "coordinates": [ -73.906708, 40.854554 ] } },
{ "type": "Feature", "properties": { "name": "DOLLAR K", "type": "Store", "capacity_amt": 8000.0, "capacity_unit_col": "sqft" }, "geometry": { "type": "Point", "coordinates": [ -73.864408, 40.854446 ] } },
{ "type": "Feature", "properties": { "name": "DOLLAR MAJIC", "type": "Store", "capacity_amt": 1200.0, "capacity_unit_col": "sqft" }, "geometry": { "type": "Point", "coordinates": [ -73.867304, 40.868545 ] } },
{ "type": "Feature", "properties": { "name": "DOLLAR TREE #05191", "type": "Store", "capacity_amt": 2500.0, "capacity_unit_col": "sqft" }, "geometry": { "type": "Point", "coordinates": [ -73.891066, 40.820536 ] } },
{ "type": "Feature", "properties": { "name": "DOLLAR TREE #05774", "type": "Store", "capacity_amt": 10000.0, "capacity_unit_col": "sqft" }, "geometry": { "type": "Point", "coordinates": [ -73.856498, 40.833678 ] } },
{ "type": "Feature", "properties": { "name": "DOLLAR TREE #07224", "type": "Store", "capacity_amt": 4000.0, "capacity_unit_col": "sqft" }, "geometry": { "type": "Point", "coordinates": [ -73.916184, 40.806276 ] } },
{ "type": "Feature", "properties": { "name": "DOLLAR TREE 3096", "type": "Store", "capacity_amt": 6000.0, "capacity_unit_col": "sqft" }, "geometry": { "type": "Point", "coordinates": [ -73.828923, 40.869503 ] } },
{ "type": "Feature", "properties": { "name": "DOLLAR TREE #3788", "type": "Store", "capacity_amt": 14000.0, "capacity_unit_col": "sqft" }, "geometry": { "type": "Point", "coordinates": [ -73.846074, 40.842859 ] } },
{ "type": "Feature", "properties": { "name": "DOLLAR TREE #4169", "type": "Store", "capacity_amt": 10000.0, "capacity_unit_col": "sqft" }, "geometry": { "type": "Point", "coordinates": [ -73.861399, 40.886181 ] } },
{ "type": "Feature", "properties": { "name": "DOLLAR TREE  #4274", "type": "Store", "capacity_amt": 6000.0, "capacity_unit_col": "sqft" }, "geometry": { "type": "Point", "coordinates": [ -73.888478, 40.864033 ] } },
{ "type": "Feature", "properties": { "name": "DOLLAR TREE #4388", "type": "Store", "capacity_amt": 10000.0, "capacity_unit_col": "sqft" }, "geometry": { "type": "Point", "coordinates": [ -73.861537, 40.866544 ] } },
{ "type": "Feature", "properties": { "name": "DOLLAR TREE  #4514", "type": "Store", "capacity_amt": 5000.0, "capacity_unit_col": "sqft" }, "geometry": { "type": "Point", "coordinates": [ -73.892421, 40.831768 ] } },
{ "type": "Feature", "properties": { "name": "DOLLAR TREE  #4729", "type": "Store", "capacity_amt": 15000.0, "capacity_unit_col": "sqft" }, "geometry": { "type": "Point", "coordinates": [ -73.897439, 40.821829 ] } },
{ "type": "Feature", "properties": { "name": "DOLLAR TREE  #4747", "type": "Store", "capacity_amt": 10000.0, "capacity_unit_col": "sqft" }, "geometry": { "type": "Point", "coordinates": [ -73.9182, 40.839506 ] } },
{ "type": "Feature", "properties": { "name": "DOLLAR TREE  #5004", "type": "Store", "capacity_amt": 8000.0, "capacity_unit_col": "sqft" }, "geometry": { "type": "Point", "coordinates": [ -73.85685, 40.894367 ] } },
{ "type": "Feature", "properties": { "name": "DOLLAR TREE #5069", "type": "Store", "capacity_amt": 10000.0, "capacity_unit_col": "sqft" }, "geometry": { "type": "Point", "coordinates": [ -73.924833, 40.815669 ] } },
{ "type": "Feature", "properties": { "name": "DOLLAR TREE  #5150", "type": "Store", "capacity_amt": 1500.0, "capacity_unit_col": "sqft" }, "geometry": { "type": "Point", "coordinates": [ -73.898422, 40.82737 ] } },
{ "type": "Feature", "properties": { "name": "DOLLAR TREE  #5345", "type": "Store", "capacity_amt": 5200.0, "capacity_unit_col": "sqft" }, "geometry": { "type": "Point", "coordinates": [ -73.91051, 40.815959 ] } },
{ "type": "Feature", "properties": { "name": "DOLOMA CONVENIENCE STRE", "type": "Store", "capacity_amt": 1800.0, "capacity_unit_col": "sqft" }, "geometry": { "type": "Point", "coordinates": [ -73.904913, 40.878558 ] } },
{ "type": "Feature", "properties": { "name": "DOUBI DELI AND GROCERY", "type": "Store", "capacity_amt": 1200.0, "capacity_unit_col": "sqft" }, "geometry": { "type": "Point", "coordinates": [ -73.923803, 40.811852 ] } },
{ "type": "Feature", "properties": { "name": "DOUBLE A SUPER DELI", "type": "Store", "capacity_amt": 1200.0, "capacity_unit_col": "sqft" }, "geometry": { "type": "Point", "coordinates": [ -73.877651, 40.871996 ] } },
{ "type": "Feature", "properties": { "name": "DOUBLE DISCOUNT STORE", "type": "Store", "capacity_amt": 10000.0, "capacity_unit_col": "sqft" }, "geometry": { "type": "Point", "coordinates": [ -73.892732, 40.824241 ] } },
{ "type": "Feature", "properties": { "name": "DOWNTOWN BRONX DELI", "type": "Store", "capacity_amt": 2000.0, "capacity_unit_col": "sqft" }, "geometry": { "type": "Point", "coordinates": [ -73.916952, 40.817909 ] } },
{ "type": "Feature", "properties": { "name": "DREAM ON", "type": "Store", "capacity_amt": 2400.0, "capacity_unit_col": "sqft" }, "geometry": { "type": "Point", "coordinates": [ -73.850166, 40.903653 ] } },
{ "type": "Feature", "properties": { "name": "DUANE READE 14288", "type": "Store", "capacity_amt": 8000.0, "capacity_unit_col": "sqft" }, "geometry": { "type": "Point", "coordinates": [ -73.896906, 40.867308 ] } },
{ "type": "Feature", "properties": { "name": "DUANE READE 14459", "type": "Store", "capacity_amt": 8470.0, "capacity_unit_col": "sqft" }, "geometry": { "type": "Point", "coordinates": [ -73.89995, 40.862353 ] } },
{ "type": "Feature", "properties": { "name": "DYRE FISH MARKET", "type": "Store", "capacity_amt": 2125.0, "capacity_unit_col": "sqft" }, "geometry": { "type": "Point", "coordinates": [ -73.831287, 40.889345 ] } },
{ "type": "Feature", "properties": { "name": "EAST 169 DELI & GROCERY", "type": "Store", "capacity_amt": 1200.0, "capacity_unit_col": "sqft" }, "geometry": { "type": "Point", "coordinates": [ -73.912708, 40.835233 ] } },
{ "type": "Feature", "properties": { "name": "EAST 169TH GOURMET DELI", "type": "Store", "capacity_amt": 1100.0, "capacity_unit_col": "sqft" }, "geometry": { "type": "Point", "coordinates": [ -73.899749, 40.830817 ] } },
{ "type": "Feature", "properties": { "name": "EAST DELI", "type": "Store", "capacity_amt": 6000.0, "capacity_unit_col": "sqft" }, "geometry": { "type": "Point", "coordinates": [ -73.917806, 40.840067 ] } },
{ "type": "Feature", "properties": { "name": "EASTSIDE SUPERMARKET", "type": "Store", "capacity_amt": 3000.0, "capacity_unit_col": "sqft" }, "geometry": { "type": "Point", "coordinates": [ -73.900868, 40.860004 ] } },
{ "type": "Feature", "properties": { "name": "EAST TREMONT DELI GRCY", "type": "Store", "capacity_amt": 1100.0, "capacity_unit_col": "sqft" }, "geometry": { "type": "Point", "coordinates": [ -73.891578, 40.845636 ] } },
{ "type": "Feature", "properties": { "name": "EASY BUY DELI & GROCERY", "type": "Store", "capacity_amt": 1200.0, "capacity_unit_col": "sqft" }, "geometry": { "type": "Point", "coordinates": [ -73.910764, 40.852164 ] } },
{ "type": "Feature", "properties": { "name": "EAT BETTER GOURMET DELI", "type": "Store", "capacity_amt": 1100.0, "capacity_unit_col": "sqft" }, "geometry": { "type": "Point", "coordinates": [ -73.866002, 40.871421 ] } },
{ "type": "Feature", "properties": { "name": "EATWELL BAKERY&RESTRNT", "type": "Store", "capacity_amt": 1800.0, "capacity_unit_col": "sqft" }, "geometry": { "type": "Point", "coordinates": [ -73.852754, 40.839263 ] } },
{ "type": "Feature", "properties": { "name": "EBB CONVENIENCE", "type": "Store", "capacity_amt": 1200.0, "capacity_unit_col": "sqft" }, "geometry": { "type": "Point", "coordinates": [ -73.860518, 40.887733 ] } },
{ "type": "Feature", "properties": { "name": "EDDIES DELI", "type": "Store", "capacity_amt": 1200.0, "capacity_unit_col": "sqft" }, "geometry": { "type": "Point", "coordinates": [ -73.879509, 40.875329 ] } },
{ "type": "Feature", "properties": { "name": "EDEN DELI", "type": "Store", "capacity_amt": 1200.0, "capacity_unit_col": "sqft" }, "geometry": { "type": "Point", "coordinates": [ -73.844171, 40.851418 ] } },
{ "type": "Feature", "properties": { "name": "ELAINY DELI GROCERY", "type": "Store", "capacity_amt": 1500.0, "capacity_unit_col": "sqft" }, "geometry": { "type": "Point", "coordinates": [ -73.90786, 40.829591 ] } },
{ "type": "Feature", "properties": { "name": "EL CATEY DELI GROCERY", "type": "Store", "capacity_amt": 1500.0, "capacity_unit_col": "sqft" }, "geometry": { "type": "Point", "coordinates": [ -73.919081, 40.838315 ] } },
{ "type": "Feature", "properties": { "name": "ELDER AVE #2 GROCERY", "type": "Store", "capacity_amt": 1500.0, "capacity_unit_col": "sqft" }, "geometry": { "type": "Point", "coordinates": [ -73.879251, 40.82892 ] } },
{ "type": "Feature", "properties": { "name": "EL FLACO GROCERY STORE", "type": "Store", "capacity_amt": 15000.0, "capacity_unit_col": "sqft" }, "geometry": { "type": "Point", "coordinates": [ -73.885338, 40.844373 ] } },
{ "type": "Feature", "properties": { "name": "EL JALAPENO FOOD MARKET", "type": "Store", "capacity_amt": 1300.0, "capacity_unit_col": "sqft" }, "geometry": { "type": "Point", "coordinates": [ -73.875512, 40.87965 ] } },
{ "type": "Feature", "properties": { "name": "EL PAISANO NO. 3 FISH M", "type": "Store", "capacity_amt": 1500.0, "capacity_unit_col": "sqft" }, "geometry": { "type": "Point", "coordinates": [ -73.876442, 40.826322 ] } },
{ "type": "Feature", "properties": { "name": "EL REY DELI GROCERY", "type": "Store", "capacity_amt": 1800.0, "capacity_unit_col": "sqft" }, "geometry": { "type": "Point", "coordinates": [ -73.903919, 40.876305 ] } },
{ "type": "Feature", "properties": { "name": "EL RINCON BANILEJO DELI", "type": "Store", "capacity_amt": 1200.0, "capacity_unit_col": "sqft" }, "geometry": { "type": "Point", "coordinates": [ -73.924597, 40.847433 ] } },
{ "type": "Feature", "properties": { "name": "EL RUBIO DELI-GROCERY", "type": "Store", "capacity_amt": 1500.0, "capacity_unit_col": "sqft" }, "geometry": { "type": "Point", "coordinates": [ -73.908055, 40.820448 ] } },
{ "type": "Feature", "properties": { "name": "EL SITO DELI GROCERY", "type": "Store", "capacity_amt": 1100.0, "capacity_unit_col": "sqft" }, "geometry": { "type": "Point", "coordinates": [ -73.894782, 40.82833 ] } },
{ "type": "Feature", "properties": { "name": "EL TIO DELI GROCERY", "type": "Store", "capacity_amt": 1100.0, "capacity_unit_col": "sqft" }, "geometry": { "type": "Point", "coordinates": [ -73.87074, 40.834674 ] } },
{ "type": "Feature", "properties": { "name": "ELTON AVE DELI & GROCER", "type": "Store", "capacity_amt": 1200.0, "capacity_unit_col": "sqft" }, "geometry": { "type": "Point", "coordinates": [ -73.914924, 40.818262 ] } },